[
  {
    "stop_id": "StopArea:OCE80194035",
    "stop_name": "Gare de Neustadt (Weinstr) Hbf",
    "stop_desc": "",
    "stop_lat": 49.35006155,
    "stop_lon": 8.14067588,
    "zone_id": "",
    "stop_url": "",
    "location_type": 1,
    "parent_station": ""
  },
  {
    "stop_id": "StopArea:OCE80194258",
    "stop_name": "Gare de Landau Hbf",
    "stop_desc": "",
    "stop_lat": 49.19762565,
    "stop_lon": 8.12559939,
    "zone_id": "",
    "stop_url": "",
    "location_type": 1,
    "parent_station": ""
  },
  {
    "stop_id": "StopArea:OCE80194324",
    "stop_name": "Gare de WINDEN PFALZ",
    "stop_desc": "",
    "stop_lat": 49.09544004,
    "stop_lon": 8.1224056,
    "zone_id": "",
    "stop_url": "",
    "location_type": 1,
    "parent_station": ""
  },
  {
    "stop_id": "StopArea:OCE87213470",
    "stop_name": "Gare de Wissembourg",
    "stop_desc": "",
    "stop_lat": 49.03153308,
    "stop_lon": 7.95030589,
    "zone_id": "",
    "stop_url": "",
    "location_type": 1,
    "parent_station": ""
  },
  {
    "stop_id": "StopArea:OCE80191031",
    "stop_name": "Gare de WOERTH RHEIN",
    "stop_desc": "",
    "stop_lat": 49.04609506,
    "stop_lon": 8.27334841,
    "zone_id": "",
    "stop_url": "",
    "location_type": 1,
    "parent_station": ""
  },
  {
    "stop_id": "StopArea:OCE87212464",
    "stop_name": "Gare de Lauterbourg",
    "stop_desc": "",
    "stop_lat": 48.96725483,
    "stop_lon": 8.1828186,
    "zone_id": "",
    "stop_url": "",
    "location_type": 1,
    "parent_station": ""
  },
  {
    "stop_id": "StopArea:OCE87116137",
    "stop_name": "Gare de Longueville (S.-et-M.)",
    "stop_desc": "",
    "stop_lat": 48.51351115,
    "stop_lon": 3.24968453,
    "zone_id": "",
    "stop_url": "",
    "location_type": 1,
    "parent_station": ""
  },
  {
    "stop_id": "StopArea:OCE87116178",
    "stop_name": "Gare de Ste-Colombe-Septveilles",
    "stop_desc": "",
    "stop_lat": 48.53017483,
    "stop_lon": 3.25721747,
    "zone_id": "",
    "stop_url": "",
    "location_type": 1,
    "parent_station": ""
  },
  {
    "stop_id": "StopArea:OCE87115873",
    "stop_name": "Gare de Champbenoist-Poigny",
    "stop_desc": "",
    "stop_lat": 48.5453574,
    "stop_lon": 3.28705609,
    "zone_id": "",
    "stop_url": "",
    "location_type": 1,
    "parent_station": ""
  },
  {
    "stop_id": "StopArea:OCE87116160",
    "stop_name": "Gare de Provins",
    "stop_desc": "",
    "stop_lat": 48.55569426,
    "stop_lon": 3.30284529,
    "zone_id": "",
    "stop_url": "",
    "location_type": 1,
    "parent_station": ""
  },
  {
    "stop_id": "StopArea:OCE87116301",
    "stop_name": "Gare de Coulommiers",
    "stop_desc": "",
    "stop_lat": 48.8077692,
    "stop_lon": 3.08204723,
    "zone_id": "",
    "stop_url": "",
    "location_type": 1,
    "parent_station": ""
  },
  {
    "stop_id": "StopArea:OCE87116343",
    "stop_name": "Chailly-Boissy-Chatel",
    "stop_desc": "",
    "stop_lat": 48.81434523,
    "stop_lon": 3.15249005,
    "zone_id": "",
    "stop_url": "",
    "location_type": 1,
    "parent_station": ""
  },
  {
    "stop_id": "StopArea:OCE87116350",
    "stop_name": "Chauffry",
    "stop_desc": "",
    "stop_lat": 48.81128738,
    "stop_lon": 3.17476072,
    "zone_id": "",
    "stop_url": "",
    "location_type": 1,
    "parent_station": ""
  },
  {
    "stop_id": "StopArea:OCE87116368",
    "stop_name": "St-Siméon",
    "stop_desc": "",
    "stop_lat": 48.79968311,
    "stop_lon": 3.20860209,
    "zone_id": "",
    "stop_url": "",
    "location_type": 1,
    "parent_station": ""
  },
  {
    "stop_id": "StopArea:OCE87116376",
    "stop_name": "St-Rémy-la-Vanne",
    "stop_desc": "",
    "stop_lat": 48.80015659,
    "stop_lon": 3.24623109,
    "zone_id": "",
    "stop_url": "",
    "location_type": 1,
    "parent_station": ""
  },
  {
    "stop_id": "StopArea:OCE87430918",
    "stop_name": "Jouy-sur-Morin-Champgou",
    "stop_desc": "",
    "stop_lat": 48.79168358,
    "stop_lon": 3.25635379,
    "zone_id": "",
    "stop_url": "",
    "location_type": 1,
    "parent_station": ""
  },
  {
    "stop_id": "StopArea:OCE87430900",
    "stop_name": "Jouy-sur-Morin-Eustache",
    "stop_desc": "",
    "stop_lat": 48.79827887,
    "stop_lon": 3.26705581,
    "zone_id": "",
    "stop_url": "",
    "location_type": 1,
    "parent_station": ""
  },
  {
    "stop_id": "StopArea:OCE87430884",
    "stop_name": "Jouy-sur-Morin-Monument",
    "stop_desc": "",
    "stop_lat": 48.79068253,
    "stop_lon": 3.27406178,
    "zone_id": "",
    "stop_url": "",
    "location_type": 1,
    "parent_station": ""
  },
  {
    "stop_id": "StopArea:OCE87116392",
    "stop_name": "La Ferté-Gaucher",
    "stop_desc": "",
    "stop_lat": 48.78271103,
    "stop_lon": 3.29755778,
    "zone_id": "",
    "stop_url": "",
    "location_type": 1,
    "parent_station": ""
  },
  {
    "stop_id": "StopArea:OCE87430819",
    "stop_name": "La-Ferté-Gaucher-Centre",
    "stop_desc": "",
    "stop_lat": 48.78231124,
    "stop_lon": 3.30694913,
    "zone_id": "",
    "stop_url": "",
    "location_type": 1,
    "parent_station": ""
  },
  {
    "stop_id": "StopArea:OCE87681007",
    "stop_name": "Gare de Corbeil-Essonnes",
    "stop_desc": "",
    "stop_lat": 48.61411793,
    "stop_lon": 2.47389296,
    "zone_id": "",
    "stop_url": "",
    "location_type": 1,
    "parent_station": ""
  },
  {
    "stop_id": "StopArea:OCE87682542",
    "stop_name": "Gare de St-Fargeau",
    "stop_desc": "",
    "stop_lat": 48.56455088,
    "stop_lon": 2.54245767,
    "zone_id": "",
    "stop_url": "",
    "location_type": 1,
    "parent_station": ""
  },
  {
    "stop_id": "StopArea:OCE87682526",
    "stop_name": "Gare de Ponthierry-Pringy",
    "stop_desc": "",
    "stop_lat": 48.53500742,
    "stop_lon": 2.54460207,
    "zone_id": "",
    "stop_url": "",
    "location_type": 1,
    "parent_station": ""
  },
  {
    "stop_id": "StopArea:OCE87682518",
    "stop_name": "Gare de Boissise-le-Roi",
    "stop_desc": "",
    "stop_lat": 48.52967102,
    "stop_lon": 2.57163704,
    "zone_id": "",
    "stop_url": "",
    "location_type": 1,
    "parent_station": ""
  },
  {
    "stop_id": "StopArea:OCE87682500",
    "stop_name": "Gare de Vosves",
    "stop_desc": "",
    "stop_lat": 48.51497812,
    "stop_lon": 2.59909325,
    "zone_id": "",
    "stop_url": "",
    "location_type": 1,
    "parent_station": ""
  },
  {
    "stop_id": "StopArea:OCE87682005",
    "stop_name": "Gare de Melun",
    "stop_desc": "",
    "stop_lat": 48.52759664,
    "stop_lon": 2.65539176,
    "zone_id": "",
    "stop_url": "",
    "location_type": 1,
    "parent_station": ""
  },
  {
    "stop_id": "StopArea:OCE87681601",
    "stop_name": "Gare de Essonnes-Robinson",
    "stop_desc": "",
    "stop_lat": 48.60594931,
    "stop_lon": 2.46351582,
    "zone_id": "",
    "stop_url": "",
    "location_type": 1,
    "parent_station": ""
  },
  {
    "stop_id": "StopArea:OCE87681619",
    "stop_name": "Gare de Villabé",
    "stop_desc": "",
    "stop_lat": 48.59282713,
    "stop_lon": 2.46153267,
    "zone_id": "",
    "stop_url": "",
    "location_type": 1,
    "parent_station": ""
  },
  {
    "stop_id": "StopArea:OCE87681627",
    "stop_name": "Gare de Le Plessis-Chenet",
    "stop_desc": "",
    "stop_lat": 48.57324597,
    "stop_lon": 2.47962426,
    "zone_id": "",
    "stop_url": "",
    "location_type": 1,
    "parent_station": ""
  },
  {
    "stop_id": "StopArea:OCE87990630",
    "stop_name": "Le Coudray-Montceaux-J.",
    "stop_desc": "",
    "stop_lat": 48.56636156,
    "stop_lon": 2.49274348,
    "zone_id": "",
    "stop_url": "",
    "location_type": 1,
    "parent_station": ""
  },
  {
    "stop_id": "StopArea:OCE87681635",
    "stop_name": "Gare de Coudray-Montceaux",
    "stop_desc": "",
    "stop_lat": 48.56636156,
    "stop_lon": 2.49274348,
    "zone_id": "",
    "stop_url": "",
    "location_type": 1,
    "parent_station": ""
  },
  {
    "stop_id": "StopArea:OCE87681403",
    "stop_name": "Gare de Moulin-Galant",
    "stop_desc": "",
    "stop_lat": 48.58615298,
    "stop_lon": 2.4734403,
    "zone_id": "",
    "stop_url": "",
    "location_type": 1,
    "parent_station": ""
  },
  {
    "stop_id": "StopArea:OCE87681411",
    "stop_name": "Gare de Mennecy",
    "stop_desc": "",
    "stop_lat": 48.57106327,
    "stop_lon": 2.43325189,
    "zone_id": "",
    "stop_url": "",
    "location_type": 1,
    "parent_station": ""
  },
  {
    "stop_id": "StopArea:OCE87681437",
    "stop_name": "Gare de Ballancourt",
    "stop_desc": "",
    "stop_lat": 48.53243334,
    "stop_lon": 2.37128293,
    "zone_id": "",
    "stop_url": "",
    "location_type": 1,
    "parent_station": ""
  },
  {
    "stop_id": "StopArea:OCE87681452",
    "stop_name": "Gare de La Ferté-Alais",
    "stop_desc": "",
    "stop_lat": 48.48514198,
    "stop_lon": 2.35200853,
    "zone_id": "",
    "stop_url": "",
    "location_type": 1,
    "parent_station": ""
  },
  {
    "stop_id": "StopArea:OCE87734004",
    "stop_name": "Gare de Clermont-Ferrand",
    "stop_desc": "",
    "stop_lat": 45.77856939,
    "stop_lon": 3.10051901,
    "zone_id": "",
    "stop_url": "",
    "location_type": 1,
    "parent_station": ""
  },
  {
    "stop_id": "StopArea:OCE87734053",
    "stop_name": "Gare de Riom-Châtel-Guyon",
    "stop_desc": "",
    "stop_lat": 45.88984232,
    "stop_lon": 3.1208132,
    "zone_id": "",
    "stop_url": "",
    "location_type": 1,
    "parent_station": ""
  },
  {
    "stop_id": "StopArea:OCE87732008",
    "stop_name": "Gare de Vichy",
    "stop_desc": "",
    "stop_lat": 46.12697018,
    "stop_lon": 3.43048945,
    "zone_id": "",
    "stop_url": "",
    "location_type": 1,
    "parent_station": ""
  },
  {
    "stop_id": "StopArea:OCE87726802",
    "stop_name": "Gare de Roanne",
    "stop_desc": "",
    "stop_lat": 46.04021151,
    "stop_lon": 4.06313483,
    "zone_id": "",
    "stop_url": "",
    "location_type": 1,
    "parent_station": ""
  },
  {
    "stop_id": "StopArea:OCE87721472",
    "stop_name": "Gare de Tarare",
    "stop_desc": "",
    "stop_lat": 45.88978808,
    "stop_lon": 4.43907466,
    "zone_id": "",
    "stop_url": "",
    "location_type": 1,
    "parent_station": ""
  },
  {
    "stop_id": "StopArea:OCE87723197",
    "stop_name": "Gare de Lyon-Part-Dieu",
    "stop_desc": "",
    "stop_lat": 45.7605853,
    "stop_lon": 4.85943505,
    "zone_id": "",
    "stop_url": "",
    "location_type": 1,
    "parent_station": ""
  },
  {
    "stop_id": "StopArea:OCE87722025",
    "stop_name": "Gare de Lyon-Perrache",
    "stop_desc": "",
    "stop_lat": 45.74878519,
    "stop_lon": 4.82594103,
    "zone_id": "",
    "stop_url": "",
    "location_type": 1,
    "parent_station": ""
  },
  {
    "stop_id": "StopArea:OCE87118000",
    "stop_name": "Gare de Troyes",
    "stop_desc": "",
    "stop_lat": 48.29503007,
    "stop_lon": 4.06538402,
    "zone_id": "",
    "stop_url": "",
    "location_type": 1,
    "parent_station": ""
  },
  {
    "stop_id": "StopArea:OCE87118257",
    "stop_name": "Gare de Vendeuvre (Aube)",
    "stop_desc": "",
    "stop_lat": 48.24033602,
    "stop_lon": 4.46718837,
    "zone_id": "",
    "stop_url": "",
    "location_type": 1,
    "parent_station": ""
  },
  {
    "stop_id": "StopArea:OCE87118299",
    "stop_name": "Gare de Bar-sur-Aube",
    "stop_desc": "",
    "stop_lat": 48.23854994,
    "stop_lon": 4.70683803,
    "zone_id": "",
    "stop_url": "",
    "location_type": 1,
    "parent_station": ""
  },
  {
    "stop_id": "StopArea:OCE87142000",
    "stop_name": "Gare de Chaumont",
    "stop_desc": "",
    "stop_lat": 48.10945433,
    "stop_lon": 5.13444549,
    "zone_id": "",
    "stop_url": "",
    "location_type": 1,
    "parent_station": ""
  },
  {
    "stop_id": "StopArea:OCE87142091",
    "stop_name": "Gare de Langres",
    "stop_desc": "",
    "stop_lat": 47.87725486,
    "stop_lon": 5.34468027,
    "zone_id": "",
    "stop_url": "",
    "location_type": 1,
    "parent_station": ""
  },
  {
    "stop_id": "StopArea:OCE87142125",
    "stop_name": "Gare de Culmont-Chalindrey",
    "stop_desc": "",
    "stop_lat": 47.81023249,
    "stop_lon": 5.44321616,
    "zone_id": "",
    "stop_url": "",
    "location_type": 1,
    "parent_station": ""
  },
  {
    "stop_id": "StopArea:OCE87444000",
    "stop_name": "Gare de Caen",
    "stop_desc": "",
    "stop_lat": 49.17654371,
    "stop_lon": -0.34826957,
    "zone_id": "",
    "stop_url": "",
    "location_type": 1,
    "parent_station": ""
  },
  {
    "stop_id": "StopArea:OCE87444208",
    "stop_name": "Gare de Mézidon-Canon",
    "stop_desc": "",
    "stop_lat": 49.07086722,
    "stop_lon": -0.07496612,
    "zone_id": "",
    "stop_url": "",
    "location_type": 1,
    "parent_station": ""
  },
  {
    "stop_id": "StopArea:OCE87444216",
    "stop_name": "Gare de St-Pierre-sur-Dives",
    "stop_desc": "",
    "stop_lat": 49.02264025,
    "stop_lon": -0.04150576,
    "zone_id": "",
    "stop_url": "",
    "location_type": 1,
    "parent_station": ""
  },
  {
    "stop_id": "StopArea:OCE87444539",
    "stop_name": "Gare de Argentan",
    "stop_desc": "",
    "stop_lat": 48.73845947,
    "stop_lon": -0.02572377,
    "zone_id": "",
    "stop_url": "",
    "location_type": 1,
    "parent_station": ""
  },
  {
    "stop_id": "StopArea:OCE87444562",
    "stop_name": "Gare de Surdon",
    "stop_desc": "",
    "stop_lat": 48.66490121,
    "stop_lon": 0.1341297,
    "zone_id": "",
    "stop_url": "",
    "location_type": 1,
    "parent_station": ""
  },
  {
    "stop_id": "StopArea:OCE87444695",
    "stop_name": "Gare de Sées",
    "stop_desc": "",
    "stop_lat": 48.60016092,
    "stop_lon": 0.16611181,
    "zone_id": "",
    "stop_url": "",
    "location_type": 1,
    "parent_station": ""
  },
  {
    "stop_id": "StopArea:OCE87444711",
    "stop_name": "Gare de Alençon",
    "stop_desc": "",
    "stop_lat": 48.43380326,
    "stop_lon": 0.09905038,
    "zone_id": "",
    "stop_url": "",
    "location_type": 1,
    "parent_station": ""
  },
  {
    "stop_id": "StopArea:OCE87396077",
    "stop_name": "Gare de Vivoin-Beaumont",
    "stop_desc": "",
    "stop_lat": 48.23013647,
    "stop_lon": 0.14467595,
    "zone_id": "",
    "stop_url": "",
    "location_type": 1,
    "parent_station": ""
  },
  {
    "stop_id": "StopArea:OCE87396044",
    "stop_name": "Gare de Montbizot",
    "stop_desc": "",
    "stop_lat": 48.15132801,
    "stop_lon": 0.19083044,
    "zone_id": "",
    "stop_url": "",
    "location_type": 1,
    "parent_station": ""
  },
  {
    "stop_id": "StopArea:OCE87396002",
    "stop_name": "Gare de Le Mans",
    "stop_desc": "",
    "stop_lat": 47.99558372,
    "stop_lon": 0.19214284,
    "zone_id": "",
    "stop_url": "",
    "location_type": 1,
    "parent_station": ""
  },
  {
    "stop_id": "StopArea:OCE87396564",
    "stop_name": "Gare de Ecommoy",
    "stop_desc": "",
    "stop_lat": 47.82452812,
    "stop_lon": 0.26901262,
    "zone_id": "",
    "stop_url": "",
    "location_type": 1,
    "parent_station": ""
  },
  {
    "stop_id": "StopArea:OCE87396606",
    "stop_name": "Gare de Château-du-Loir",
    "stop_desc": "",
    "stop_lat": 47.68327883,
    "stop_lon": 0.41498452,
    "zone_id": "",
    "stop_url": "",
    "location_type": 1,
    "parent_station": ""
  },
  {
    "stop_id": "StopArea:OCE87571240",
    "stop_name": "Gare de St-Pierre-des-Corps",
    "stop_desc": "",
    "stop_lat": 47.38573204,
    "stop_lon": 0.72505388,
    "zone_id": "",
    "stop_url": "",
    "location_type": 1,
    "parent_station": ""
  },
  {
    "stop_id": "StopArea:OCE87571000",
    "stop_name": "Gare de Tours",
    "stop_desc": "",
    "stop_lat": 47.38981372,
    "stop_lon": 0.69350509,
    "zone_id": "",
    "stop_url": "",
    "location_type": 1,
    "parent_station": ""
  },
  {
    "stop_id": "StopArea:OCE87396028",
    "stop_name": "Gare de Neuville-sur-Sarthe",
    "stop_desc": "",
    "stop_lat": 48.07059659,
    "stop_lon": 0.19983845,
    "zone_id": "",
    "stop_url": "",
    "location_type": 1,
    "parent_station": ""
  },
  {
    "stop_id": "StopArea:OCE87396036",
    "stop_name": "Gare de La Guierche",
    "stop_desc": "",
    "stop_lat": 48.11402148,
    "stop_lon": 0.1931313,
    "zone_id": "",
    "stop_url": "",
    "location_type": 1,
    "parent_station": ""
  },
  {
    "stop_id": "StopArea:OCE87396093",
    "stop_name": "Gare de La Hutte-Coulombiers",
    "stop_desc": "",
    "stop_lat": 48.30334558,
    "stop_lon": 0.10545623,
    "zone_id": "",
    "stop_url": "",
    "location_type": 1,
    "parent_station": ""
  },
  {
    "stop_id": "StopArea:OCE87444232",
    "stop_name": "Gare de Couliboeuf",
    "stop_desc": "",
    "stop_lat": 48.92358139,
    "stop_lon": -0.0984896,
    "zone_id": "",
    "stop_url": "",
    "location_type": 1,
    "parent_station": ""
  },
  {
    "stop_id": "StopArea:OCE87576009",
    "stop_name": "Gare de Vierzon",
    "stop_desc": "",
    "stop_lat": 47.2265163,
    "stop_lon": 2.05982407,
    "zone_id": "",
    "stop_url": "",
    "location_type": 1,
    "parent_station": ""
  },
  {
    "stop_id": "StopArea:OCE87576272",
    "stop_name": "Gare de St-Florent-sur-Cher",
    "stop_desc": "",
    "stop_lat": 46.99211536,
    "stop_lon": 2.25214903,
    "zone_id": "",
    "stop_url": "",
    "location_type": 1,
    "parent_station": ""
  },
  {
    "stop_id": "StopArea:OCE87576298",
    "stop_name": "Gare de Châteauneuf-sur-Cher",
    "stop_desc": "",
    "stop_lat": 46.85668637,
    "stop_lon": 2.31021168,
    "zone_id": "",
    "stop_url": "",
    "location_type": 1,
    "parent_station": ""
  },
  {
    "stop_id": "StopArea:OCE87576322",
    "stop_name": "Gare de St-Amand-Montrond-Orval",
    "stop_desc": "",
    "stop_lat": 46.72652078,
    "stop_lon": 2.48606153,
    "zone_id": "",
    "stop_url": "",
    "location_type": 1,
    "parent_station": ""
  },
  {
    "stop_id": "StopArea:OCE87641357",
    "stop_name": "Gare de Vallon-en-Sully",
    "stop_desc": "",
    "stop_lat": 46.5364848,
    "stop_lon": 2.61080265,
    "zone_id": "",
    "stop_url": "",
    "location_type": 1,
    "parent_station": ""
  },
  {
    "stop_id": "StopArea:OCE87641001",
    "stop_name": "Gare de Montluçon-Ville",
    "stop_desc": "",
    "stop_lat": 46.33787458,
    "stop_lon": 2.59641208,
    "zone_id": "",
    "stop_url": "",
    "location_type": 1,
    "parent_station": ""
  },
  {
    "stop_id": "StopArea:OCE87113001",
    "stop_name": "Gare de Paris-Est",
    "stop_desc": "",
    "stop_lat": 48.87656977,
    "stop_lon": 2.35915061,
    "zone_id": "",
    "stop_url": "",
    "location_type": 1,
    "parent_station": ""
  },
  {
    "stop_id": "StopArea:OCE87118190",
    "stop_name": "Gare de Nogent-sur-Seine",
    "stop_desc": "",
    "stop_lat": 48.49783702,
    "stop_lon": 3.4937079,
    "zone_id": "",
    "stop_url": "",
    "location_type": 1,
    "parent_station": ""
  },
  {
    "stop_id": "StopArea:OCE87118158",
    "stop_name": "Gare de Romilly-sur-Seine",
    "stop_desc": "",
    "stop_lat": 48.51417327,
    "stop_lon": 3.72833188,
    "zone_id": "",
    "stop_url": "",
    "location_type": 1,
    "parent_station": ""
  },
  {
    "stop_id": "StopArea:OCE87393488",
    "stop_name": "Gare de Dreux",
    "stop_desc": "",
    "stop_lat": 48.73148271,
    "stop_lon": 1.37016611,
    "zone_id": "",
    "stop_url": "",
    "location_type": 1,
    "parent_station": ""
  },
  {
    "stop_id": "StopArea:OCE87393553",
    "stop_name": "Gare de Nonancourt",
    "stop_desc": "",
    "stop_lat": 48.77575107,
    "stop_lon": 1.19279866,
    "zone_id": "",
    "stop_url": "",
    "location_type": 1,
    "parent_station": ""
  },
  {
    "stop_id": "StopArea:OCE87393595",
    "stop_name": "Gare de Verneuil-sur-Avre",
    "stop_desc": "",
    "stop_lat": 48.74273478,
    "stop_lon": 0.9292008,
    "zone_id": "",
    "stop_url": "",
    "location_type": 1,
    "parent_station": ""
  },
  {
    "stop_id": "StopArea:OCE87444638",
    "stop_name": "Gare de L'Aigle",
    "stop_desc": "",
    "stop_lat": 48.7666838,
    "stop_lon": 0.62073331,
    "zone_id": "",
    "stop_url": "",
    "location_type": 1,
    "parent_station": ""
  },
  {
    "stop_id": "StopArea:OCE87444604",
    "stop_name": "Gare de Ste-Gauburge",
    "stop_desc": "",
    "stop_lat": 48.71726323,
    "stop_lon": 0.42810818,
    "zone_id": "",
    "stop_url": "",
    "location_type": 1,
    "parent_station": ""
  },
  {
    "stop_id": "StopArea:OCE87444588",
    "stop_name": "Gare de Le Merlerault",
    "stop_desc": "",
    "stop_lat": 48.70241495,
    "stop_lon": 0.28349405,
    "zone_id": "",
    "stop_url": "",
    "location_type": 1,
    "parent_station": ""
  },
  {
    "stop_id": "StopArea:OCE87448084",
    "stop_name": "Gare de Briouze",
    "stop_desc": "",
    "stop_lat": 48.70200316,
    "stop_lon": -0.36744375,
    "zone_id": "",
    "stop_url": "",
    "location_type": 1,
    "parent_station": ""
  },
  {
    "stop_id": "StopArea:OCE87448001",
    "stop_name": "Gare de Flers",
    "stop_desc": "",
    "stop_lat": 48.74437263,
    "stop_lon": -0.57368061,
    "zone_id": "",
    "stop_url": "",
    "location_type": 1,
    "parent_station": ""
  },
  {
    "stop_id": "StopArea:OCE87448159",
    "stop_name": "Gare de Vire",
    "stop_desc": "",
    "stop_lat": 48.84635383,
    "stop_lon": -0.88316925,
    "zone_id": "",
    "stop_url": "",
    "location_type": 1,
    "parent_station": ""
  },
  {
    "stop_id": "StopArea:OCE87447698",
    "stop_name": "Gare de Villedieu (Gare)",
    "stop_desc": "",
    "stop_lat": 48.83415156,
    "stop_lon": -1.22545495,
    "zone_id": "",
    "stop_url": "",
    "location_type": 1,
    "parent_station": ""
  },
  {
    "stop_id": "StopArea:OCE87447649",
    "stop_name": "Gare de Folligny",
    "stop_desc": "",
    "stop_lat": 48.82915304,
    "stop_lon": -1.40639963,
    "zone_id": "",
    "stop_url": "",
    "location_type": 1,
    "parent_station": ""
  },
  {
    "stop_id": "StopArea:OCE87447680",
    "stop_name": "Gare de Granville",
    "stop_desc": "",
    "stop_lat": 48.83884408,
    "stop_lon": -1.58677824,
    "zone_id": "",
    "stop_url": "",
    "location_type": 1,
    "parent_station": ""
  },
  {
    "stop_id": "StopArea:OCE87547000",
    "stop_name": "Gare de Paris-Austerlitz",
    "stop_desc": "",
    "stop_lat": 48.84165219,
    "stop_lon": 2.36603927,
    "zone_id": "",
    "stop_url": "",
    "location_type": 1,
    "parent_station": ""
  },
  {
    "stop_id": "StopArea:OCE87391102",
    "stop_name": "Gare de Paris-Montp.3-Vaug.",
    "stop_desc": "",
    "stop_lat": 48.83870597,
    "stop_lon": 2.31662734,
    "zone_id": "",
    "stop_url": "",
    "location_type": 1,
    "parent_station": ""
  },
  {
    "stop_id": "StopArea:OCE87393009",
    "stop_name": "Gare de Versailles-Chantiers",
    "stop_desc": "",
    "stop_lat": 48.79556635,
    "stop_lon": 2.13546496,
    "zone_id": "",
    "stop_url": "",
    "location_type": 1,
    "parent_station": ""
  },
  {
    "stop_id": "StopArea:OCE87394007",
    "stop_name": "Gare de Chartres",
    "stop_desc": "",
    "stop_lat": 48.44820324,
    "stop_lon": 1.48122558,
    "zone_id": "",
    "stop_url": "",
    "location_type": 1,
    "parent_station": ""
  },
  {
    "stop_id": "StopArea:OCE87394205",
    "stop_name": "Gare de Amilly-Ouerray",
    "stop_desc": "",
    "stop_lat": 48.43844966,
    "stop_lon": 1.38955717,
    "zone_id": "",
    "stop_url": "",
    "location_type": 1,
    "parent_station": ""
  },
  {
    "stop_id": "StopArea:OCE87394213",
    "stop_name": "Gare de St-Aubin-St-Luperce",
    "stop_desc": "",
    "stop_lat": 48.44745576,
    "stop_lon": 1.33370047,
    "zone_id": "",
    "stop_url": "",
    "location_type": 1,
    "parent_station": ""
  },
  {
    "stop_id": "StopArea:OCE87394221",
    "stop_name": "Gare de Courville-sur-Eure",
    "stop_desc": "",
    "stop_lat": 48.45135871,
    "stop_lon": 1.23493366,
    "zone_id": "",
    "stop_url": "",
    "location_type": 1,
    "parent_station": ""
  },
  {
    "stop_id": "StopArea:OCE87394247",
    "stop_name": "Gare de Pontgouin",
    "stop_desc": "",
    "stop_lat": 48.47785438,
    "stop_lon": 1.14144593,
    "zone_id": "",
    "stop_url": "",
    "location_type": 1,
    "parent_station": ""
  },
  {
    "stop_id": "StopArea:OCE87394254",
    "stop_name": "Gare de La Loupe",
    "stop_desc": "",
    "stop_lat": 48.47384487,
    "stop_lon": 1.01087386,
    "zone_id": "",
    "stop_url": "",
    "location_type": 1,
    "parent_station": ""
  },
  {
    "stop_id": "StopArea:OCE87394270",
    "stop_name": "Gare de Bretoncelles",
    "stop_desc": "",
    "stop_lat": 48.43273017,
    "stop_lon": 0.89235062,
    "zone_id": "",
    "stop_url": "",
    "location_type": 1,
    "parent_station": ""
  },
  {
    "stop_id": "StopArea:OCE87394288",
    "stop_name": "Gare de Condé-sur-Huisne",
    "stop_desc": "",
    "stop_lat": 48.38327217,
    "stop_lon": 0.84876307,
    "zone_id": "",
    "stop_url": "",
    "location_type": 1,
    "parent_station": ""
  },
  {
    "stop_id": "StopArea:OCE87394296",
    "stop_name": "Gare de Nogent-le-Rotrou",
    "stop_desc": "",
    "stop_lat": 48.32549567,
    "stop_lon": 0.81005826,
    "zone_id": "",
    "stop_url": "",
    "location_type": 1,
    "parent_station": ""
  },
  {
    "stop_id": "StopArea:OCE87396333",
    "stop_name": "Gare de Le Theil-la-Rouge",
    "stop_desc": "",
    "stop_lat": 48.26712921,
    "stop_lon": 0.69427347,
    "zone_id": "",
    "stop_url": "",
    "location_type": 1,
    "parent_station": ""
  },
  {
    "stop_id": "StopArea:OCE87396325",
    "stop_name": "Gare de La Ferté-Bernard",
    "stop_desc": "",
    "stop_lat": 48.18648653,
    "stop_lon": 0.63932529,
    "zone_id": "",
    "stop_url": "",
    "location_type": 1,
    "parent_station": ""
  },
  {
    "stop_id": "StopArea:OCE87396317",
    "stop_name": "Gare de Sceaux-Boessé",
    "stop_desc": "",
    "stop_lat": 48.12223389,
    "stop_lon": 0.57227123,
    "zone_id": "",
    "stop_url": "",
    "location_type": 1,
    "parent_station": ""
  },
  {
    "stop_id": "StopArea:OCE87396309",
    "stop_name": "Gare de Connerré-Beillé",
    "stop_desc": "",
    "stop_lat": 48.07375173,
    "stop_lon": 0.48694021,
    "zone_id": "",
    "stop_url": "",
    "location_type": 1,
    "parent_station": ""
  },
  {
    "stop_id": "StopArea:OCE87396291",
    "stop_name": "Gare de Montfort-le-Gesnois",
    "stop_desc": "",
    "stop_lat": 48.04063626,
    "stop_lon": 0.40632339,
    "zone_id": "",
    "stop_url": "",
    "location_type": 1,
    "parent_station": ""
  },
  {
    "stop_id": "StopArea:OCE87396283",
    "stop_name": "Gare de St-Mars-la-Brière",
    "stop_desc": "",
    "stop_lat": 48.0285199,
    "stop_lon": 0.36582575,
    "zone_id": "",
    "stop_url": "",
    "location_type": 1,
    "parent_station": ""
  },
  {
    "stop_id": "StopArea:OCE87396275",
    "stop_name": "Gare de Champagné",
    "stop_desc": "",
    "stop_lat": 48.0197513,
    "stop_lon": 0.3357037,
    "zone_id": "",
    "stop_url": "",
    "location_type": 1,
    "parent_station": ""
  },
  {
    "stop_id": "StopArea:OCE87394114",
    "stop_name": "Gare de Epernon",
    "stop_desc": "",
    "stop_lat": 48.60515482,
    "stop_lon": 1.68141775,
    "zone_id": "",
    "stop_url": "",
    "location_type": 1,
    "parent_station": ""
  },
  {
    "stop_id": "StopArea:OCE87394130",
    "stop_name": "Gare de Maintenon",
    "stop_desc": "",
    "stop_lat": 48.58536431,
    "stop_lon": 1.59245486,
    "zone_id": "",
    "stop_url": "",
    "location_type": 1,
    "parent_station": ""
  },
  {
    "stop_id": "StopArea:OCE87391003",
    "stop_name": "Gare de Paris-Montparnasse 1-2",
    "stop_desc": "",
    "stop_lat": 48.84062983,
    "stop_lon": 2.31989439,
    "zone_id": "",
    "stop_url": "",
    "location_type": 1,
    "parent_station": ""
  },
  {
    "stop_id": "StopArea:OCE87393314",
    "stop_name": "Gare de Rambouillet",
    "stop_desc": "",
    "stop_lat": 48.64378766,
    "stop_lon": 1.83120236,
    "zone_id": "",
    "stop_url": "",
    "location_type": 1,
    "parent_station": ""
  },
  {
    "stop_id": "StopArea:OCE87393348",
    "stop_name": "Gare de Gazeran",
    "stop_desc": "",
    "stop_lat": 48.62595902,
    "stop_lon": 1.77276869,
    "zone_id": "",
    "stop_url": "",
    "location_type": 1,
    "parent_station": ""
  },
  {
    "stop_id": "StopArea:OCE87394148",
    "stop_name": "Gare de St-Piat",
    "stop_desc": "",
    "stop_lat": 48.54244093,
    "stop_lon": 1.59010245,
    "zone_id": "",
    "stop_url": "",
    "location_type": 1,
    "parent_station": ""
  },
  {
    "stop_id": "StopArea:OCE87394155",
    "stop_name": "Gare de Jouy",
    "stop_desc": "",
    "stop_lat": 48.51018979,
    "stop_lon": 1.55749561,
    "zone_id": "",
    "stop_url": "",
    "location_type": 1,
    "parent_station": ""
  },
  {
    "stop_id": "StopArea:OCE87394171",
    "stop_name": "Gare de La Villette-St-Prest",
    "stop_desc": "",
    "stop_lat": 48.48274299,
    "stop_lon": 1.52292035,
    "zone_id": "",
    "stop_url": "",
    "location_type": 1,
    "parent_station": ""
  },
  {
    "stop_id": "StopArea:OCE87543017",
    "stop_name": "Gare de Aubrais-(les)",
    "stop_desc": "",
    "stop_lat": 47.92691735,
    "stop_lon": 1.90608452,
    "zone_id": "",
    "stop_url": "",
    "location_type": 1,
    "parent_station": ""
  },
  {
    "stop_id": "StopArea:OCE87574137",
    "stop_name": "Gare de Meung-sur-Loire",
    "stop_desc": "",
    "stop_lat": 47.82989884,
    "stop_lon": 1.69193483,
    "zone_id": "",
    "stop_url": "",
    "location_type": 1,
    "parent_station": ""
  },
  {
    "stop_id": "StopArea:OCE87574160",
    "stop_name": "Gare de Beaugency",
    "stop_desc": "",
    "stop_lat": 47.7783489,
    "stop_lon": 1.62593963,
    "zone_id": "",
    "stop_url": "",
    "location_type": 1,
    "parent_station": ""
  },
  {
    "stop_id": "StopArea:OCE87574194",
    "stop_name": "Gare de Mer (Loir-et-Cher)",
    "stop_desc": "",
    "stop_lat": 47.70588238,
    "stop_lon": 1.50635794,
    "zone_id": "",
    "stop_url": "",
    "location_type": 1,
    "parent_station": ""
  },
  {
    "stop_id": "StopArea:OCE87574004",
    "stop_name": "Gare de Blois-Chambord",
    "stop_desc": "",
    "stop_lat": 47.58542368,
    "stop_lon": 1.32372784,
    "zone_id": "",
    "stop_url": "",
    "location_type": 1,
    "parent_station": ""
  },
  {
    "stop_id": "StopArea:OCE87574319",
    "stop_name": "Gare de Onzain-Chaumont-/-L",
    "stop_desc": "",
    "stop_lat": 47.49194215,
    "stop_lon": 1.1857356,
    "zone_id": "",
    "stop_url": "",
    "location_type": 1,
    "parent_station": ""
  },
  {
    "stop_id": "StopArea:OCE87574343",
    "stop_name": "Gare de Amboise",
    "stop_desc": "",
    "stop_lat": 47.42143137,
    "stop_lon": 0.98121874,
    "zone_id": "",
    "stop_url": "",
    "location_type": 1,
    "parent_station": ""
  },
  {
    "stop_id": "StopArea:OCE87574301",
    "stop_name": "Gare de Chouzy",
    "stop_desc": "",
    "stop_lat": 47.52034509,
    "stop_lon": 1.24757476,
    "zone_id": "",
    "stop_url": "",
    "location_type": 1,
    "parent_station": ""
  },
  {
    "stop_id": "StopArea:OCE87574327",
    "stop_name": "Gare de Veuves-Monteaux",
    "stop_desc": "",
    "stop_lat": 47.47550337,
    "stop_lon": 1.12366267,
    "zone_id": "",
    "stop_url": "",
    "location_type": 1,
    "parent_station": ""
  },
  {
    "stop_id": "StopArea:OCE87574335",
    "stop_name": "Gare de Limeray",
    "stop_desc": "",
    "stop_lat": 47.45029143,
    "stop_lon": 1.04982139,
    "zone_id": "",
    "stop_url": "",
    "location_type": 1,
    "parent_station": ""
  },
  {
    "stop_id": "StopArea:OCE87574368",
    "stop_name": "Gare de Noizay",
    "stop_desc": "",
    "stop_lat": 47.40984152,
    "stop_lon": 0.89611263,
    "zone_id": "",
    "stop_url": "",
    "location_type": 1,
    "parent_station": ""
  },
  {
    "stop_id": "StopArea:OCE87571273",
    "stop_name": "Gare de Montlouis",
    "stop_desc": "",
    "stop_lat": 47.39155363,
    "stop_lon": 0.81751318,
    "zone_id": "",
    "stop_url": "",
    "location_type": 1,
    "parent_station": ""
  },
  {
    "stop_id": "StopArea:OCE87543009",
    "stop_name": "Gare de Orléans",
    "stop_desc": "",
    "stop_lat": 47.90815267,
    "stop_lon": 1.90475291,
    "zone_id": "",
    "stop_url": "",
    "location_type": 1,
    "parent_station": ""
  },
  {
    "stop_id": "StopArea:OCE87543371",
    "stop_name": "Gare de La Chapelle-St-Mesmin",
    "stop_desc": "",
    "stop_lat": 47.89286499,
    "stop_lon": 1.82693286,
    "zone_id": "",
    "stop_url": "",
    "location_type": 1,
    "parent_station": ""
  },
  {
    "stop_id": "StopArea:OCE87574111",
    "stop_name": "Gare de Chaingy-Fourneaux-Plage",
    "stop_desc": "",
    "stop_lat": 47.87744282,
    "stop_lon": 1.78379573,
    "zone_id": "",
    "stop_url": "",
    "location_type": 1,
    "parent_station": ""
  },
  {
    "stop_id": "StopArea:OCE87574129",
    "stop_name": "Gare de St-Ay",
    "stop_desc": "",
    "stop_lat": 47.86305909,
    "stop_lon": 1.75000033,
    "zone_id": "",
    "stop_url": "",
    "location_type": 1,
    "parent_station": ""
  },
  {
    "stop_id": "StopArea:OCE87574152",
    "stop_name": "Gare de Baule",
    "stop_desc": "",
    "stop_lat": 47.81194186,
    "stop_lon": 1.66861458,
    "zone_id": "",
    "stop_url": "",
    "location_type": 1,
    "parent_station": ""
  },
  {
    "stop_id": "StopArea:OCE87574236",
    "stop_name": "Gare de Suèvres",
    "stop_desc": "",
    "stop_lat": 47.68056085,
    "stop_lon": 1.4547702,
    "zone_id": "",
    "stop_url": "",
    "location_type": 1,
    "parent_station": ""
  },
  {
    "stop_id": "StopArea:OCE87574244",
    "stop_name": "Gare de Ménars",
    "stop_desc": "",
    "stop_lat": 47.64490149,
    "stop_lon": 1.40576898,
    "zone_id": "",
    "stop_url": "",
    "location_type": 1,
    "parent_station": ""
  },
  {
    "stop_id": "StopArea:OCE87574251",
    "stop_name": "Gare de La Chaussée-St-Victor",
    "stop_desc": "",
    "stop_lat": 47.61253142,
    "stop_lon": 1.35367305,
    "zone_id": "",
    "stop_url": "",
    "location_type": 1,
    "parent_station": ""
  },
  {
    "stop_id": "StopArea:OCE87721423",
    "stop_name": "Gare de Lozanne",
    "stop_desc": "",
    "stop_lat": 45.85413547,
    "stop_lon": 4.68145966,
    "zone_id": "",
    "stop_url": "",
    "location_type": 1,
    "parent_station": ""
  },
  {
    "stop_id": "StopArea:OCE87721787",
    "stop_name": "Gare de Bois-d'Oingt-Légny",
    "stop_desc": "",
    "stop_lat": 45.90658752,
    "stop_lon": 4.57557979,
    "zone_id": "",
    "stop_url": "",
    "location_type": 1,
    "parent_station": ""
  },
  {
    "stop_id": "StopArea:OCE87721860",
    "stop_name": "Gare de Lamure-sur-Azergues",
    "stop_desc": "",
    "stop_lat": 46.06109508,
    "stop_lon": 4.49212283,
    "zone_id": "",
    "stop_url": "",
    "location_type": 1,
    "parent_station": ""
  },
  {
    "stop_id": "StopArea:OCE87694778",
    "stop_name": "Gare de Chauffailles",
    "stop_desc": "",
    "stop_lat": 46.20740359,
    "stop_lon": 4.34537669,
    "zone_id": "",
    "stop_url": "",
    "location_type": 1,
    "parent_station": ""
  },
  {
    "stop_id": "StopArea:OCE87694737",
    "stop_name": "Gare de La Clayette-Baudemont",
    "stop_desc": "",
    "stop_lat": 46.28816249,
    "stop_lon": 4.29845083,
    "zone_id": "",
    "stop_url": "",
    "location_type": 1,
    "parent_station": ""
  },
  {
    "stop_id": "StopArea:OCE87694687",
    "stop_name": "Gare de Paray-le-Monial",
    "stop_desc": "",
    "stop_lat": 46.44725642,
    "stop_lon": 4.11362785,
    "zone_id": "",
    "stop_url": "",
    "location_type": 1,
    "parent_station": ""
  },
  {
    "stop_id": "StopArea:OCE87694695",
    "stop_name": "Gare de Digoin",
    "stop_desc": "",
    "stop_lat": 46.48519568,
    "stop_lon": 3.98763741,
    "zone_id": "",
    "stop_url": "",
    "location_type": 1,
    "parent_station": ""
  },
  {
    "stop_id": "StopArea:OCE87694869",
    "stop_name": "Gare de Gilly-sur-Loire",
    "stop_desc": "",
    "stop_lat": 46.53698267,
    "stop_lon": 3.7817873,
    "zone_id": "",
    "stop_url": "",
    "location_type": 1,
    "parent_station": ""
  },
  {
    "stop_id": "StopArea:OCE87696427",
    "stop_name": "Gare de Dompierre-Sept-Fons",
    "stop_desc": "",
    "stop_lat": 46.52626677,
    "stop_lon": 3.67489951,
    "zone_id": "",
    "stop_url": "",
    "location_type": 1,
    "parent_station": ""
  },
  {
    "stop_id": "StopArea:OCE87696328",
    "stop_name": "Gare de Moulins-sur-Allier",
    "stop_desc": "",
    "stop_lat": 46.56136387,
    "stop_lon": 3.33875541,
    "zone_id": "",
    "stop_url": "",
    "location_type": 1,
    "parent_station": ""
  },
  {
    "stop_id": "StopArea:OCE87696005",
    "stop_name": "Gare de Nevers",
    "stop_desc": "",
    "stop_lat": 46.98734891,
    "stop_lon": 3.15086974,
    "zone_id": "",
    "stop_url": "",
    "location_type": 1,
    "parent_station": ""
  },
  {
    "stop_id": "StopArea:OCE87576207",
    "stop_name": "Gare de Bourges",
    "stop_desc": "",
    "stop_lat": 47.09409406,
    "stop_lon": 2.39422622,
    "zone_id": "",
    "stop_url": "",
    "location_type": 1,
    "parent_station": ""
  },
  {
    "stop_id": "StopArea:OCE87576884",
    "stop_name": "Gare de Villefranche-sur-Cher",
    "stop_desc": "",
    "stop_lat": 47.29473996,
    "stop_lon": 1.76803686,
    "zone_id": "",
    "stop_url": "",
    "location_type": 1,
    "parent_station": ""
  },
  {
    "stop_id": "StopArea:OCE87576876",
    "stop_name": "Gare de Gièvres",
    "stop_desc": "",
    "stop_lat": 47.27872998,
    "stop_lon": 1.66781212,
    "zone_id": "",
    "stop_url": "",
    "location_type": 1,
    "parent_station": ""
  },
  {
    "stop_id": "StopArea:OCE87576868",
    "stop_name": "Gare de Selles-sur-Cher",
    "stop_desc": "",
    "stop_lat": 47.28159501,
    "stop_lon": 1.54614412,
    "zone_id": "",
    "stop_url": "",
    "location_type": 1,
    "parent_station": ""
  },
  {
    "stop_id": "StopArea:OCE87574897",
    "stop_name": "Gare de St-Aignan-Noyers",
    "stop_desc": "",
    "stop_lat": 47.28672803,
    "stop_lon": 1.3836619,
    "zone_id": "",
    "stop_url": "",
    "location_type": 1,
    "parent_station": ""
  },
  {
    "stop_id": "StopArea:OCE87574855",
    "stop_name": "Gare de Montrichard",
    "stop_desc": "",
    "stop_lat": 47.34357588,
    "stop_lon": 1.17182016,
    "zone_id": "",
    "stop_url": "",
    "location_type": 1,
    "parent_station": ""
  },
  {
    "stop_id": "StopArea:OCE87574491",
    "stop_name": "Gare de Chenonceaux",
    "stop_desc": "",
    "stop_lat": 47.33065088,
    "stop_lon": 1.06539437,
    "zone_id": "",
    "stop_url": "",
    "location_type": 1,
    "parent_station": ""
  },
  {
    "stop_id": "StopArea:OCE87574475",
    "stop_name": "Gare de Bléré-la-Croix",
    "stop_desc": "",
    "stop_lat": 47.33772339,
    "stop_lon": 0.9877374,
    "zone_id": "",
    "stop_url": "",
    "location_type": 1,
    "parent_station": ""
  },
  {
    "stop_id": "StopArea:OCE87784686",
    "stop_name": "Gare de Villefranche-Vernet-l.B",
    "stop_desc": "",
    "stop_lat": 42.59146754,
    "stop_lon": 2.37001473,
    "zone_id": "",
    "stop_url": "",
    "location_type": 1,
    "parent_station": ""
  },
  {
    "stop_id": "StopArea:OCE87784702",
    "stop_name": "Gare de Serdinya",
    "stop_desc": "",
    "stop_lat": 42.56704757,
    "stop_lon": 2.32339006,
    "zone_id": "",
    "stop_url": "",
    "location_type": 1,
    "parent_station": ""
  },
  {
    "stop_id": "StopArea:OCE87784710",
    "stop_name": "Gare de Joncet",
    "stop_desc": "",
    "stop_lat": 42.56175651,
    "stop_lon": 2.311354,
    "zone_id": "",
    "stop_url": "",
    "location_type": 1,
    "parent_station": ""
  },
  {
    "stop_id": "StopArea:OCE87784728",
    "stop_name": "Gare de Olette-Canaveilles-l.B.",
    "stop_desc": "",
    "stop_lat": 42.55466434,
    "stop_lon": 2.27255339,
    "zone_id": "",
    "stop_url": "",
    "location_type": 1,
    "parent_station": ""
  },
  {
    "stop_id": "StopArea:OCE87784736",
    "stop_name": "Gare de Nyers",
    "stop_desc": "",
    "stop_lat": 42.54226684,
    "stop_lon": 2.26299884,
    "zone_id": "",
    "stop_url": "",
    "location_type": 1,
    "parent_station": ""
  },
  {
    "stop_id": "StopArea:OCE87784744",
    "stop_name": "Gare de Thuès-les-Bains",
    "stop_desc": "",
    "stop_lat": 42.52983819,
    "stop_lon": 2.24909015,
    "zone_id": "",
    "stop_url": "",
    "location_type": 1,
    "parent_station": ""
  },
  {
    "stop_id": "StopArea:OCE87784751",
    "stop_name": "Gare de Thuès-Carança",
    "stop_desc": "",
    "stop_lat": 42.52360579,
    "stop_lon": 2.22860952,
    "zone_id": "",
    "stop_url": "",
    "location_type": 1,
    "parent_station": ""
  },
  {
    "stop_id": "StopArea:OCE87784769",
    "stop_name": "Gare de Fontpédrouse-St-Thomas",
    "stop_desc": "",
    "stop_lat": 42.51387124,
    "stop_lon": 2.19010598,
    "zone_id": "",
    "stop_url": "",
    "location_type": 1,
    "parent_station": ""
  },
  {
    "stop_id": "StopArea:OCE87784777",
    "stop_name": "Gare de Sauto",
    "stop_desc": "",
    "stop_lat": 42.50650039,
    "stop_lon": 2.16108528,
    "zone_id": "",
    "stop_url": "",
    "location_type": 1,
    "parent_station": ""
  },
  {
    "stop_id": "StopArea:OCE87784785",
    "stop_name": "Gare de Planès",
    "stop_desc": "",
    "stop_lat": 42.50180684,
    "stop_lon": 2.13706175,
    "zone_id": "",
    "stop_url": "",
    "location_type": 1,
    "parent_station": ""
  },
  {
    "stop_id": "StopArea:OCE87784793",
    "stop_name": "Gare de Mont-Louis-la-Cabanasse",
    "stop_desc": "",
    "stop_lat": 42.50197726,
    "stop_lon": 2.11441876,
    "zone_id": "",
    "stop_url": "",
    "location_type": 1,
    "parent_station": ""
  },
  {
    "stop_id": "StopArea:OCE87784801",
    "stop_name": "Gare de Bolquère-Eyne",
    "stop_desc": "",
    "stop_lat": 42.49751253,
    "stop_lon": 2.08907732,
    "zone_id": "",
    "stop_url": "",
    "location_type": 1,
    "parent_station": ""
  },
  {
    "stop_id": "StopArea:OCE87784819",
    "stop_name": "Gare de Font-Romeu-Odeillo-Via",
    "stop_desc": "",
    "stop_lat": 42.49130655,
    "stop_lon": 2.03949607,
    "zone_id": "",
    "stop_url": "",
    "location_type": 1,
    "parent_station": ""
  },
  {
    "stop_id": "StopArea:OCE87784827",
    "stop_name": "Gare de Estavar",
    "stop_desc": "",
    "stop_lat": 42.46300126,
    "stop_lon": 2.01922048,
    "zone_id": "",
    "stop_url": "",
    "location_type": 1,
    "parent_station": ""
  },
  {
    "stop_id": "StopArea:OCE87784835",
    "stop_name": "Gare de Saillagouse",
    "stop_desc": "",
    "stop_lat": 42.45679618,
    "stop_lon": 2.0310882,
    "zone_id": "",
    "stop_url": "",
    "location_type": 1,
    "parent_station": ""
  },
  {
    "stop_id": "StopArea:OCE87784843",
    "stop_name": "Gare de Err",
    "stop_desc": "",
    "stop_lat": 42.44337458,
    "stop_lon": 2.0283101,
    "zone_id": "",
    "stop_url": "",
    "location_type": 1,
    "parent_station": ""
  },
  {
    "stop_id": "StopArea:OCE87784850",
    "stop_name": "Gare de Ste-Léocadie",
    "stop_desc": "",
    "stop_lat": 42.44154561,
    "stop_lon": 2.01116767,
    "zone_id": "",
    "stop_url": "",
    "location_type": 1,
    "parent_station": ""
  },
  {
    "stop_id": "StopArea:OCE87784868",
    "stop_name": "Gare de Osséja",
    "stop_desc": "",
    "stop_lat": 42.42013285,
    "stop_lon": 1.9778198,
    "zone_id": "",
    "stop_url": "",
    "location_type": 1,
    "parent_station": ""
  },
  {
    "stop_id": "StopArea:OCE87784876",
    "stop_name": "Gare de Bourg-Madame",
    "stop_desc": "",
    "stop_lat": 42.43209002,
    "stop_lon": 1.94931314,
    "zone_id": "",
    "stop_url": "",
    "location_type": 1,
    "parent_station": ""
  },
  {
    "stop_id": "StopArea:OCE87784884",
    "stop_name": "Gare de Ur-les-Escaldes",
    "stop_desc": "",
    "stop_lat": 42.45680247,
    "stop_lon": 1.9407459,
    "zone_id": "",
    "stop_url": "",
    "location_type": 1,
    "parent_station": ""
  },
  {
    "stop_id": "StopArea:OCE87784892",
    "stop_name": "Gare de Béna-Fanes",
    "stop_desc": "",
    "stop_lat": 42.45798104,
    "stop_lon": 1.91800324,
    "zone_id": "",
    "stop_url": "",
    "location_type": 1,
    "parent_station": ""
  },
  {
    "stop_id": "StopArea:OCE87611483",
    "stop_name": "Gare de Latour-de-Carol-Enveitg",
    "stop_desc": "",
    "stop_lat": 42.45815677,
    "stop_lon": 1.90584041,
    "zone_id": "",
    "stop_url": "",
    "location_type": 1,
    "parent_station": ""
  },
  {
    "stop_id": "StopArea:OCE87761650",
    "stop_name": "Gare de Romans-Bourg-de-Péage",
    "stop_desc": "",
    "stop_lat": 45.04886034,
    "stop_lon": 5.04949359,
    "zone_id": "",
    "stop_url": "",
    "location_type": 1,
    "parent_station": ""
  },
  {
    "stop_id": "StopArea:OCE87763029",
    "stop_name": "Gare de Valence-TGV",
    "stop_desc": "",
    "stop_lat": 44.99137044,
    "stop_lon": 4.97894146,
    "zone_id": "",
    "stop_url": "",
    "location_type": 1,
    "parent_station": ""
  },
  {
    "stop_id": "StopArea:OCE87761007",
    "stop_name": "Gare de Valence-Ville",
    "stop_desc": "",
    "stop_lat": 44.92807044,
    "stop_lon": 4.89329483,
    "zone_id": "",
    "stop_url": "",
    "location_type": 1,
    "parent_station": ""
  },
  {
    "stop_id": "StopArea:OCE87761247",
    "stop_name": "Gare de Livron",
    "stop_desc": "",
    "stop_lat": 44.77959669,
    "stop_lon": 4.83056681,
    "zone_id": "",
    "stop_url": "",
    "location_type": 1,
    "parent_station": ""
  },
  {
    "stop_id": "StopArea:OCE87761783",
    "stop_name": "Gare de Crest",
    "stop_desc": "",
    "stop_lat": 44.73018716,
    "stop_lon": 5.01610992,
    "zone_id": "",
    "stop_url": "",
    "location_type": 1,
    "parent_station": ""
  },
  {
    "stop_id": "StopArea:OCE87761817",
    "stop_name": "Gare de Saillans",
    "stop_desc": "",
    "stop_lat": 44.69437745,
    "stop_lon": 5.19417538,
    "zone_id": "",
    "stop_url": "",
    "location_type": 1,
    "parent_station": ""
  },
  {
    "stop_id": "StopArea:OCE87761841",
    "stop_name": "Gare de Die",
    "stop_desc": "",
    "stop_lat": 44.75821265,
    "stop_lon": 5.36325692,
    "zone_id": "",
    "stop_url": "",
    "location_type": 1,
    "parent_station": ""
  },
  {
    "stop_id": "StopArea:OCE87761874",
    "stop_name": "Gare de Luc-en-Diois",
    "stop_desc": "",
    "stop_lat": 44.61368698,
    "stop_lon": 5.45461665,
    "zone_id": "",
    "stop_url": "",
    "location_type": 1,
    "parent_station": ""
  },
  {
    "stop_id": "StopArea:OCE87763300",
    "stop_name": "Gare de Veynes-Dévoluy",
    "stop_desc": "",
    "stop_lat": 44.53199745,
    "stop_lon": 5.81582908,
    "zone_id": "",
    "stop_url": "",
    "location_type": 1,
    "parent_station": ""
  },
  {
    "stop_id": "StopArea:OCE87763003",
    "stop_name": "Gare de Gap",
    "stop_desc": "",
    "stop_lat": 44.56369475,
    "stop_lon": 6.08568371,
    "zone_id": "",
    "stop_url": "",
    "location_type": 1,
    "parent_station": ""
  },
  {
    "stop_id": "StopArea:OCE87763425",
    "stop_name": "Gare de Chorges",
    "stop_desc": "",
    "stop_lat": 44.54570494,
    "stop_lon": 6.27205927,
    "zone_id": "",
    "stop_url": "",
    "location_type": 1,
    "parent_station": ""
  },
  {
    "stop_id": "StopArea:OCE87763466",
    "stop_name": "Gare de Embrun",
    "stop_desc": "",
    "stop_lat": 44.56695408,
    "stop_lon": 6.49673186,
    "zone_id": "",
    "stop_url": "",
    "location_type": 1,
    "parent_station": ""
  },
  {
    "stop_id": "StopArea:OCE87763508",
    "stop_name": "Gare de Montdauphin-Guillestre",
    "stop_desc": "",
    "stop_lat": 44.67459567,
    "stop_lon": 6.61561419,
    "zone_id": "",
    "stop_url": "",
    "location_type": 1,
    "parent_station": ""
  },
  {
    "stop_id": "StopArea:OCE87763557",
    "stop_name": "Gare de L'Argentière-les-Ecrins",
    "stop_desc": "",
    "stop_lat": 44.79100042,
    "stop_lon": 6.55640501,
    "zone_id": "",
    "stop_url": "",
    "location_type": 1,
    "parent_station": ""
  },
  {
    "stop_id": "StopArea:OCE87763607",
    "stop_name": "Gare de Briançon",
    "stop_desc": "",
    "stop_lat": 44.88980713,
    "stop_lon": 6.63294732,
    "zone_id": "",
    "stop_url": "",
    "location_type": 1,
    "parent_station": ""
  },
  {
    "stop_id": "StopArea:OCE87763722",
    "stop_name": "Gare de Serres",
    "stop_desc": "",
    "stop_lat": 44.42464717,
    "stop_lon": 5.71845754,
    "zone_id": "",
    "stop_url": "",
    "location_type": 1,
    "parent_station": ""
  },
  {
    "stop_id": "StopArea:OCE87763755",
    "stop_name": "Gare de Laragne",
    "stop_desc": "",
    "stop_lat": 44.31648398,
    "stop_lon": 5.81893421,
    "zone_id": "",
    "stop_url": "",
    "location_type": 1,
    "parent_station": ""
  },
  {
    "stop_id": "StopArea:OCE87751206",
    "stop_name": "Gare de Sisteron",
    "stop_desc": "",
    "stop_lat": 44.19019966,
    "stop_lon": 5.94656791,
    "zone_id": "",
    "stop_url": "",
    "location_type": 1,
    "parent_station": ""
  },
  {
    "stop_id": "StopArea:OCE87751230",
    "stop_name": "Gare de Château-Arnoux-St-Auban",
    "stop_desc": "",
    "stop_lat": 44.06154356,
    "stop_lon": 5.99730721,
    "zone_id": "",
    "stop_url": "",
    "location_type": 1,
    "parent_station": ""
  },
  {
    "stop_id": "StopArea:OCE87751271",
    "stop_name": "Gare de La Brillanne-Oraison",
    "stop_desc": "",
    "stop_lat": 43.92480915,
    "stop_lon": 5.89225535,
    "zone_id": "",
    "stop_url": "",
    "location_type": 1,
    "parent_station": ""
  },
  {
    "stop_id": "StopArea:OCE87751321",
    "stop_name": "Gare de Manosque-Gréoux",
    "stop_desc": "",
    "stop_lat": 43.82341514,
    "stop_lon": 5.79408334,
    "zone_id": "",
    "stop_url": "",
    "location_type": 1,
    "parent_station": ""
  },
  {
    "stop_id": "StopArea:OCE87751370",
    "stop_name": "Gare de Meyrargues",
    "stop_desc": "",
    "stop_lat": 43.64402263,
    "stop_lon": 5.53956234,
    "zone_id": "",
    "stop_url": "",
    "location_type": 1,
    "parent_station": ""
  },
  {
    "stop_id": "StopArea:OCE87751404",
    "stop_name": "Gare de Aix-en-Provence",
    "stop_desc": "",
    "stop_lat": 43.52286813,
    "stop_lon": 5.44532277,
    "zone_id": "",
    "stop_url": "",
    "location_type": 1,
    "parent_station": ""
  },
  {
    "stop_id": "StopArea:OCE87751420",
    "stop_name": "Gare de Gardanne",
    "stop_desc": "",
    "stop_lat": 43.45600725,
    "stop_lon": 5.46332194,
    "zone_id": "",
    "stop_url": "",
    "location_type": 1,
    "parent_station": ""
  },
  {
    "stop_id": "StopArea:OCE87751438",
    "stop_name": "Gare de Simiane",
    "stop_desc": "",
    "stop_lat": 43.43472402,
    "stop_lon": 5.42601155,
    "zone_id": "",
    "stop_url": "",
    "location_type": 1,
    "parent_station": ""
  },
  {
    "stop_id": "StopArea:OCE87751800",
    "stop_name": "Gare de Septèmes",
    "stop_desc": "",
    "stop_lat": 43.40310742,
    "stop_lon": 5.37013402,
    "zone_id": "",
    "stop_url": "",
    "location_type": 1,
    "parent_station": ""
  },
  {
    "stop_id": "StopArea:OCE87751826",
    "stop_name": "Gare de Saint-Antoine",
    "stop_desc": "",
    "stop_lat": 43.36941624,
    "stop_lon": 5.3580951,
    "zone_id": "",
    "stop_url": "",
    "location_type": 1,
    "parent_station": ""
  },
  {
    "stop_id": "StopArea:OCE87751842",
    "stop_name": "Gare de Ste-Marthe-en-Provence",
    "stop_desc": "",
    "stop_lat": 43.3392693,
    "stop_lon": 5.39040059,
    "zone_id": "",
    "stop_url": "",
    "location_type": 1,
    "parent_station": ""
  },
  {
    "stop_id": "StopArea:OCE87751008",
    "stop_name": "Gare de Marseille-St-Charles",
    "stop_desc": "",
    "stop_lat": 43.30272986,
    "stop_lon": 5.38064989,
    "zone_id": "",
    "stop_url": "",
    "location_type": 1,
    "parent_station": ""
  },
  {
    "stop_id": "StopArea:OCE87755009",
    "stop_name": "Gare de Toulon",
    "stop_desc": "",
    "stop_lat": 43.12831598,
    "stop_lon": 5.92945828,
    "zone_id": "",
    "stop_url": "",
    "location_type": 1,
    "parent_station": ""
  },
  {
    "stop_id": "StopArea:OCE87755371",
    "stop_name": "Gare de Carnoules",
    "stop_desc": "",
    "stop_lat": 43.29753311,
    "stop_lon": 6.18615751,
    "zone_id": "",
    "stop_url": "",
    "location_type": 1,
    "parent_station": ""
  },
  {
    "stop_id": "StopArea:OCE87755447",
    "stop_name": "Gare de Les Arcs-Draguignan",
    "stop_desc": "",
    "stop_lat": 43.45572852,
    "stop_lon": 6.48246201,
    "zone_id": "",
    "stop_url": "",
    "location_type": 1,
    "parent_station": ""
  },
  {
    "stop_id": "StopArea:OCE87757500",
    "stop_name": "Gare de Fréjus",
    "stop_desc": "",
    "stop_lat": 43.43202385,
    "stop_lon": 6.73293363,
    "zone_id": "",
    "stop_url": "",
    "location_type": 1,
    "parent_station": ""
  },
  {
    "stop_id": "StopArea:OCE87757526",
    "stop_name": "Gare de St-Raphaël-Valescure",
    "stop_desc": "",
    "stop_lat": 43.42360603,
    "stop_lon": 6.76901271,
    "zone_id": "",
    "stop_url": "",
    "location_type": 1,
    "parent_station": ""
  },
  {
    "stop_id": "StopArea:OCE87757591",
    "stop_name": "Gare de Mandelieu-la-Napoule",
    "stop_desc": "",
    "stop_lat": 43.52388493,
    "stop_lon": 6.94132082,
    "zone_id": "",
    "stop_url": "",
    "location_type": 1,
    "parent_station": ""
  },
  {
    "stop_id": "StopArea:OCE87757625",
    "stop_name": "Gare de Cannes",
    "stop_desc": "",
    "stop_lat": 43.55391311,
    "stop_lon": 7.01972542,
    "zone_id": "",
    "stop_url": "",
    "location_type": 1,
    "parent_station": ""
  },
  {
    "stop_id": "StopArea:OCE87757666",
    "stop_name": "Gare de Juan-les-Pins",
    "stop_desc": "",
    "stop_lat": 43.57090814,
    "stop_lon": 7.11150776,
    "zone_id": "",
    "stop_url": "",
    "location_type": 1,
    "parent_station": ""
  },
  {
    "stop_id": "StopArea:OCE87757674",
    "stop_name": "Gare de Antibes",
    "stop_desc": "",
    "stop_lat": 43.58578911,
    "stop_lon": 7.11951629,
    "zone_id": "",
    "stop_url": "",
    "location_type": 1,
    "parent_station": ""
  },
  {
    "stop_id": "StopArea:OCE87756320",
    "stop_name": "Gare de Cagnes-sur-Mer",
    "stop_desc": "",
    "stop_lat": 43.65769043,
    "stop_lon": 7.14816054,
    "zone_id": "",
    "stop_url": "",
    "location_type": 1,
    "parent_station": ""
  },
  {
    "stop_id": "StopArea:OCE87756346",
    "stop_name": "Gare de St-Laurent-du-Var",
    "stop_desc": "",
    "stop_lat": 43.66244598,
    "stop_lon": 7.1944711,
    "zone_id": "",
    "stop_url": "",
    "location_type": 1,
    "parent_station": ""
  },
  {
    "stop_id": "StopArea:OCE87756254",
    "stop_name": "Gare de Nice-St-Augustin",
    "stop_desc": "",
    "stop_lat": 43.67104332,
    "stop_lon": 7.21694056,
    "zone_id": "",
    "stop_url": "",
    "location_type": 1,
    "parent_station": ""
  },
  {
    "stop_id": "StopArea:OCE87756056",
    "stop_name": "Gare de Nice-Ville",
    "stop_desc": "",
    "stop_lat": 43.70471069,
    "stop_lon": 7.26178618,
    "zone_id": "",
    "stop_url": "",
    "location_type": 1,
    "parent_station": ""
  },
  {
    "stop_id": "StopArea:OCE87756353",
    "stop_name": "Gare de Nice-Riquier",
    "stop_desc": "",
    "stop_lat": 43.70570172,
    "stop_lon": 7.29038903,
    "zone_id": "",
    "stop_url": "",
    "location_type": 1,
    "parent_station": ""
  },
  {
    "stop_id": "StopArea:OCE87756361",
    "stop_name": "Gare de Villefranche-sur-Mer",
    "stop_desc": "",
    "stop_lat": 43.70700911,
    "stop_lon": 7.31430326,
    "zone_id": "",
    "stop_url": "",
    "location_type": 1,
    "parent_station": ""
  },
  {
    "stop_id": "StopArea:OCE87756379",
    "stop_name": "Gare de Beaulieu-sur-Mer",
    "stop_desc": "",
    "stop_lat": 43.70667288,
    "stop_lon": 7.33156884,
    "zone_id": "",
    "stop_url": "",
    "location_type": 1,
    "parent_station": ""
  },
  {
    "stop_id": "StopArea:OCE87756403",
    "stop_name": "Gare de Monaco-Monte-Carlo",
    "stop_desc": "",
    "stop_lat": 43.73848311,
    "stop_lon": 7.41966996,
    "zone_id": "",
    "stop_url": "",
    "location_type": 1,
    "parent_station": ""
  },
  {
    "stop_id": "StopArea:OCE87756478",
    "stop_name": "Gare de Carnolès",
    "stop_desc": "",
    "stop_lat": 43.76198613,
    "stop_lon": 7.48144148,
    "zone_id": "",
    "stop_url": "",
    "location_type": 1,
    "parent_station": ""
  },
  {
    "stop_id": "StopArea:OCE87756486",
    "stop_name": "Gare de Menton",
    "stop_desc": "",
    "stop_lat": 43.77440045,
    "stop_lon": 7.49316896,
    "zone_id": "",
    "stop_url": "",
    "location_type": 1,
    "parent_station": ""
  },
  {
    "stop_id": "StopArea:OCE87751784",
    "stop_name": "Gare de La Ciotat",
    "stop_desc": "",
    "stop_lat": 43.19957998,
    "stop_lon": 5.63266792,
    "zone_id": "",
    "stop_url": "",
    "location_type": 1,
    "parent_station": ""
  },
  {
    "stop_id": "StopArea:OCE87755231",
    "stop_name": "Gare de Ollioules-Sanary-S-Mer",
    "stop_desc": "",
    "stop_lat": 43.12254507,
    "stop_lon": 5.82503447,
    "zone_id": "",
    "stop_url": "",
    "location_type": 1,
    "parent_station": ""
  },
  {
    "stop_id": "StopArea:OCE87757617",
    "stop_name": "Gare de Cannes-la-Bocca",
    "stop_desc": "",
    "stop_lat": 43.54880951,
    "stop_lon": 6.98657882,
    "zone_id": "",
    "stop_url": "",
    "location_type": 1,
    "parent_station": ""
  },
  {
    "stop_id": "StopArea:OCE83045013",
    "stop_name": "Gare de Ventimiglia-Stazione",
    "stop_desc": "",
    "stop_lat": 43.79217032,
    "stop_lon": 7.60968253,
    "zone_id": "",
    "stop_url": "",
    "location_type": 1,
    "parent_station": ""
  },
  {
    "stop_id": "StopArea:OCE87747006",
    "stop_name": "Gare de Grenoble",
    "stop_desc": "",
    "stop_lat": 45.1914627,
    "stop_lon": 5.71452957,
    "zone_id": "",
    "stop_url": "",
    "location_type": 1,
    "parent_station": ""
  },
  {
    "stop_id": "StopArea:OCE87747329",
    "stop_name": "Gare de Moirans",
    "stop_desc": "",
    "stop_lat": 45.32214587,
    "stop_lon": 5.5819596,
    "zone_id": "",
    "stop_url": "",
    "location_type": 1,
    "parent_station": ""
  },
  {
    "stop_id": "StopArea:OCE87761759",
    "stop_name": "Gare de Tullins-Fures",
    "stop_desc": "",
    "stop_lat": 45.30093151,
    "stop_lon": 5.49214282,
    "zone_id": "",
    "stop_url": "",
    "location_type": 1,
    "parent_station": ""
  },
  {
    "stop_id": "StopArea:OCE87761726",
    "stop_name": "Gare de Vinay",
    "stop_desc": "",
    "stop_lat": 45.20793202,
    "stop_lon": 5.41016577,
    "zone_id": "",
    "stop_url": "",
    "location_type": 1,
    "parent_station": ""
  },
  {
    "stop_id": "StopArea:OCE87761718",
    "stop_name": "Gare de St-Marcellin",
    "stop_desc": "",
    "stop_lat": 45.15089694,
    "stop_lon": 5.32358227,
    "zone_id": "",
    "stop_url": "",
    "location_type": 1,
    "parent_station": ""
  },
  {
    "stop_id": "StopArea:OCE87761684",
    "stop_name": "Gare de St-Hilaire-St-Nazaire",
    "stop_desc": "",
    "stop_lat": 45.07131555,
    "stop_lon": 5.243843,
    "zone_id": "",
    "stop_url": "",
    "location_type": 1,
    "parent_station": ""
  },
  {
    "stop_id": "StopArea:OCE87741009",
    "stop_name": "Gare de Chambéry-Chal.-les-Eaux",
    "stop_desc": "",
    "stop_lat": 45.57103797,
    "stop_lon": 5.91980053,
    "zone_id": "",
    "stop_url": "",
    "location_type": 1,
    "parent_station": ""
  },
  {
    "stop_id": "StopArea:OCE87741181",
    "stop_name": "Gare de Montmélian",
    "stop_desc": "",
    "stop_lat": 45.50306502,
    "stop_lon": 6.04311843,
    "zone_id": "",
    "stop_url": "",
    "location_type": 1,
    "parent_station": ""
  },
  {
    "stop_id": "StopArea:OCE87747493",
    "stop_name": "Gare de Pontcharra-sur-Bréda",
    "stop_desc": "",
    "stop_lat": 45.4340384,
    "stop_lon": 6.00779252,
    "zone_id": "",
    "stop_url": "",
    "location_type": 1,
    "parent_station": ""
  },
  {
    "stop_id": "StopArea:OCE87747477",
    "stop_name": "Gare de Goncelin",
    "stop_desc": "",
    "stop_lat": 45.34195973,
    "stop_lon": 5.97410713,
    "zone_id": "",
    "stop_url": "",
    "location_type": 1,
    "parent_station": ""
  },
  {
    "stop_id": "StopArea:OCE87747451",
    "stop_name": "Gare de Brignoud",
    "stop_desc": "",
    "stop_lat": 45.2624618,
    "stop_lon": 5.90142687,
    "zone_id": "",
    "stop_url": "",
    "location_type": 1,
    "parent_station": ""
  },
  {
    "stop_id": "StopArea:OCE87417501",
    "stop_name": "Gare de Lancey",
    "stop_desc": "",
    "stop_lat": 45.23447217,
    "stop_lon": 5.88093284,
    "zone_id": "",
    "stop_url": "",
    "location_type": 1,
    "parent_station": ""
  },
  {
    "stop_id": "StopArea:OCE87747402",
    "stop_name": "Gare de Grenoble U.-Gières",
    "stop_desc": "",
    "stop_lat": 45.18490309,
    "stop_lon": 5.78473132,
    "zone_id": "",
    "stop_url": "",
    "location_type": 1,
    "parent_station": ""
  },
  {
    "stop_id": "StopArea:OCE87725895",
    "stop_name": "Gare de Echirolles",
    "stop_desc": "",
    "stop_lat": 45.15271743,
    "stop_lon": 5.71991187,
    "zone_id": "",
    "stop_url": "",
    "location_type": 1,
    "parent_station": ""
  },
  {
    "stop_id": "StopArea:OCE87746008",
    "stop_name": "Gare de Annecy",
    "stop_desc": "",
    "stop_lat": 45.90205904,
    "stop_lon": 6.12181945,
    "zone_id": "",
    "stop_url": "",
    "location_type": 1,
    "parent_station": ""
  },
  {
    "stop_id": "StopArea:OCE87746149",
    "stop_name": "Gare de Rumilly",
    "stop_desc": "",
    "stop_lat": 45.8630571,
    "stop_lon": 5.94795401,
    "zone_id": "",
    "stop_url": "",
    "location_type": 1,
    "parent_station": ""
  },
  {
    "stop_id": "StopArea:OCE87746115",
    "stop_name": "Gare de Albens",
    "stop_desc": "",
    "stop_lat": 45.78613332,
    "stop_lon": 5.94855071,
    "zone_id": "",
    "stop_url": "",
    "location_type": 1,
    "parent_station": ""
  },
  {
    "stop_id": "StopArea:OCE87746107",
    "stop_name": "Gare de Grésy-sur-Aix",
    "stop_desc": "",
    "stop_lat": 45.72450501,
    "stop_lon": 5.92213135,
    "zone_id": "",
    "stop_url": "",
    "location_type": 1,
    "parent_station": ""
  },
  {
    "stop_id": "StopArea:OCE87741132",
    "stop_name": "Gare de Aix-les-Bains-le-Revard",
    "stop_desc": "",
    "stop_lat": 45.68786249,
    "stop_lon": 5.90934966,
    "zone_id": "",
    "stop_url": "",
    "location_type": 1,
    "parent_station": ""
  },
  {
    "stop_id": "StopArea:OCE87764001",
    "stop_name": "Gare de Montélimar",
    "stop_desc": "",
    "stop_lat": 44.55899966,
    "stop_lon": 4.74478967,
    "zone_id": "",
    "stop_url": "",
    "location_type": 1,
    "parent_station": ""
  },
  {
    "stop_id": "StopArea:OCE87764308",
    "stop_name": "Gare de Pierrelatte",
    "stop_desc": "",
    "stop_lat": 44.37457152,
    "stop_lon": 4.70375939,
    "zone_id": "",
    "stop_url": "",
    "location_type": 1,
    "parent_station": ""
  },
  {
    "stop_id": "StopArea:OCE87764357",
    "stop_name": "Gare de Bollène-la-Croisière",
    "stop_desc": "",
    "stop_lat": 44.27153644,
    "stop_lon": 4.70795431,
    "zone_id": "",
    "stop_url": "",
    "location_type": 1,
    "parent_station": ""
  },
  {
    "stop_id": "StopArea:OCE87765107",
    "stop_name": "Gare de Orange",
    "stop_desc": "",
    "stop_lat": 44.13730527,
    "stop_lon": 4.81949522,
    "zone_id": "",
    "stop_url": "",
    "location_type": 1,
    "parent_station": ""
  },
  {
    "stop_id": "StopArea:OCE87765008",
    "stop_name": "Gare de Avignon-Centre",
    "stop_desc": "",
    "stop_lat": 43.94187716,
    "stop_lon": 4.80526228,
    "zone_id": "",
    "stop_url": "",
    "location_type": 1,
    "parent_station": ""
  },
  {
    "stop_id": "StopArea:OCE87745679",
    "stop_name": "Gare de Evian-les-Bains",
    "stop_desc": "",
    "stop_lat": 46.39788911,
    "stop_lon": 6.57747248,
    "zone_id": "",
    "stop_url": "",
    "location_type": 1,
    "parent_station": ""
  },
  {
    "stop_id": "StopArea:OCE87745646",
    "stop_name": "Gare de Thonon-les-Bains",
    "stop_desc": "",
    "stop_lat": 46.36897977,
    "stop_lon": 6.48155671,
    "zone_id": "",
    "stop_url": "",
    "location_type": 1,
    "parent_station": ""
  },
  {
    "stop_id": "StopArea:OCE87745596",
    "stop_name": "Gare de Bons-en-Chablais",
    "stop_desc": "",
    "stop_lat": 46.27003088,
    "stop_lon": 6.36616149,
    "zone_id": "",
    "stop_url": "",
    "location_type": 1,
    "parent_station": ""
  },
  {
    "stop_id": "StopArea:OCE87745497",
    "stop_name": "Gare de Annemasse",
    "stop_desc": "",
    "stop_lat": 46.19922998,
    "stop_lon": 6.23638776,
    "zone_id": "",
    "stop_url": "",
    "location_type": 1,
    "parent_station": ""
  },
  {
    "stop_id": "StopArea:OCE87746511",
    "stop_name": "Gare de Reignier",
    "stop_desc": "",
    "stop_lat": 46.12561748,
    "stop_lon": 6.2675359,
    "zone_id": "",
    "stop_url": "",
    "location_type": 1,
    "parent_station": ""
  },
  {
    "stop_id": "StopArea:OCE87746305",
    "stop_name": "Gare de La Roche-sur-Foron",
    "stop_desc": "",
    "stop_lat": 46.06767091,
    "stop_lon": 6.30373523,
    "zone_id": "",
    "stop_url": "",
    "location_type": 1,
    "parent_station": ""
  },
  {
    "stop_id": "StopArea:OCE87746248",
    "stop_name": "Gare de Groisy-Thorens-la-Caill",
    "stop_desc": "",
    "stop_lat": 46.01115125,
    "stop_lon": 6.17576081,
    "zone_id": "",
    "stop_url": "",
    "location_type": 1,
    "parent_station": ""
  },
  {
    "stop_id": "StopArea:OCE87746206",
    "stop_name": "Gare de Pringy",
    "stop_desc": "",
    "stop_lat": 45.93948623,
    "stop_lon": 6.12337169,
    "zone_id": "",
    "stop_url": "",
    "location_type": 1,
    "parent_station": ""
  },
  {
    "stop_id": "StopArea:OCE87723395",
    "stop_name": "Gare de La Verpillière",
    "stop_desc": "",
    "stop_lat": 45.62760092,
    "stop_lon": 5.15074542,
    "zone_id": "",
    "stop_url": "",
    "location_type": 1,
    "parent_station": ""
  },
  {
    "stop_id": "StopArea:OCE87723429",
    "stop_name": "Gare de Bourgoin-Jallieu",
    "stop_desc": "",
    "stop_lat": 45.58396783,
    "stop_lon": 5.27334386,
    "zone_id": "",
    "stop_url": "",
    "location_type": 1,
    "parent_station": ""
  },
  {
    "stop_id": "StopArea:OCE87723478",
    "stop_name": "Gare de La Tour-du-Pin",
    "stop_desc": "",
    "stop_lat": 45.56022537,
    "stop_lon": 5.44954735,
    "zone_id": "",
    "stop_url": "",
    "location_type": 1,
    "parent_station": ""
  },
  {
    "stop_id": "StopArea:OCE87747287",
    "stop_name": "Gare de Voiron",
    "stop_desc": "",
    "stop_lat": 45.36400399,
    "stop_lon": 5.59491118,
    "zone_id": "",
    "stop_url": "",
    "location_type": 1,
    "parent_station": ""
  },
  {
    "stop_id": "StopArea:OCE87722587",
    "stop_name": "Gare de Vienne",
    "stop_desc": "",
    "stop_lat": 45.5212139,
    "stop_lon": 4.87430509,
    "zone_id": "",
    "stop_url": "",
    "location_type": 1,
    "parent_station": ""
  },
  {
    "stop_id": "StopArea:OCE87722678",
    "stop_name": "Gare de Le Péage-de-Roussillon",
    "stop_desc": "",
    "stop_lat": 45.3716591,
    "stop_lon": 4.79540767,
    "zone_id": "",
    "stop_url": "",
    "location_type": 1,
    "parent_station": ""
  },
  {
    "stop_id": "StopArea:OCE87761163",
    "stop_name": "Gare de Tain",
    "stop_desc": "",
    "stop_lat": 45.07218091,
    "stop_lon": 4.839746,
    "zone_id": "",
    "stop_url": "",
    "location_type": 1,
    "parent_station": ""
  },
  {
    "stop_id": "StopArea:OCE87761494",
    "stop_name": "Gare de St-Peray",
    "stop_desc": "",
    "stop_lat": 44.94809055,
    "stop_lon": 4.85024963,
    "zone_id": "",
    "stop_url": "",
    "location_type": 1,
    "parent_station": ""
  },
  {
    "stop_id": "StopArea:OCE87764472",
    "stop_name": "Gare de Le Teil",
    "stop_desc": "",
    "stop_lat": 44.55257034,
    "stop_lon": 4.68599084,
    "zone_id": "",
    "stop_url": "",
    "location_type": 1,
    "parent_station": ""
  },
  {
    "stop_id": "StopArea:OCE87753657",
    "stop_name": "Gare de Arles",
    "stop_desc": "",
    "stop_lat": 43.6848436,
    "stop_lon": 4.63201884,
    "zone_id": "",
    "stop_url": "",
    "location_type": 1,
    "parent_station": ""
  },
  {
    "stop_id": "StopArea:OCE87753004",
    "stop_name": "Gare de Miramas",
    "stop_desc": "",
    "stop_lat": 43.58074022,
    "stop_lon": 4.99960212,
    "zone_id": "",
    "stop_url": "",
    "location_type": 1,
    "parent_station": ""
  },
  {
    "stop_id": "StopArea:OCE87439554",
    "stop_name": "Gare de Vitrolles-Aér-Marseille",
    "stop_desc": "",
    "stop_lat": 43.44248844,
    "stop_lon": 5.23712179,
    "zone_id": "",
    "stop_url": "",
    "location_type": 1,
    "parent_station": ""
  },
  {
    "stop_id": "StopArea:OCE87761262",
    "stop_name": "Gare de Loriol",
    "stop_desc": "",
    "stop_lat": 44.754494,
    "stop_lon": 4.81723675,
    "zone_id": "",
    "stop_url": "",
    "location_type": 1,
    "parent_station": ""
  },
  {
    "stop_id": "StopArea:OCE87764290",
    "stop_name": "Gare de Donzère",
    "stop_desc": "",
    "stop_lat": 44.44262892,
    "stop_lon": 4.70512622,
    "zone_id": "",
    "stop_url": "",
    "location_type": 1,
    "parent_station": ""
  },
  {
    "stop_id": "StopArea:OCE87765180",
    "stop_name": "Gare de Courthézon",
    "stop_desc": "",
    "stop_lat": 44.08999533,
    "stop_lon": 4.88817574,
    "zone_id": "",
    "stop_url": "",
    "location_type": 1,
    "parent_station": ""
  },
  {
    "stop_id": "StopArea:OCE87765198",
    "stop_name": "Gare de Bédarrides",
    "stop_desc": "",
    "stop_lat": 44.04076384,
    "stop_lon": 4.89311784,
    "zone_id": "",
    "stop_url": "",
    "location_type": 1,
    "parent_station": ""
  },
  {
    "stop_id": "StopArea:OCE87765206",
    "stop_name": "Gare de Sorgues-Chât.du-Pape",
    "stop_desc": "",
    "stop_lat": 44.00541714,
    "stop_lon": 4.87561026,
    "zone_id": "",
    "stop_url": "",
    "location_type": 1,
    "parent_station": ""
  },
  {
    "stop_id": "StopArea:OCE87753681",
    "stop_name": "Gare de St-Martin-de-Crau",
    "stop_desc": "",
    "stop_lat": 43.6223708,
    "stop_lon": 4.80027467,
    "zone_id": "",
    "stop_url": "",
    "location_type": 1,
    "parent_station": ""
  },
  {
    "stop_id": "StopArea:OCE87753285",
    "stop_name": "Gare de Pas-des-Lanciers",
    "stop_desc": "",
    "stop_lat": 43.40961883,
    "stop_lon": 5.25382421,
    "zone_id": "",
    "stop_url": "",
    "location_type": 1,
    "parent_station": ""
  },
  {
    "stop_id": "StopArea:OCE87753251",
    "stop_name": "Gare de Rognac",
    "stop_desc": "",
    "stop_lat": 43.48661971,
    "stop_lon": 5.23066371,
    "zone_id": "",
    "stop_url": "",
    "location_type": 1,
    "parent_station": ""
  },
  {
    "stop_id": "StopArea:OCE87713040",
    "stop_name": "Gare de Dijon-Ville",
    "stop_desc": "",
    "stop_lat": 47.32340388,
    "stop_lon": 5.02727989,
    "zone_id": "",
    "stop_url": "",
    "location_type": 1,
    "parent_station": ""
  },
  {
    "stop_id": "StopArea:OCE87713545",
    "stop_name": "Gare de Beaune",
    "stop_desc": "",
    "stop_lat": 47.0230407,
    "stop_lon": 4.8487235,
    "zone_id": "",
    "stop_url": "",
    "location_type": 1,
    "parent_station": ""
  },
  {
    "stop_id": "StopArea:OCE87713578",
    "stop_name": "Gare de Chagny",
    "stop_desc": "",
    "stop_lat": 46.90742848,
    "stop_lon": 4.74965004,
    "zone_id": "",
    "stop_url": "",
    "location_type": 1,
    "parent_station": ""
  },
  {
    "stop_id": "StopArea:OCE87725002",
    "stop_name": "Gare de Chalon-sur-Saône",
    "stop_desc": "",
    "stop_lat": 46.7815704,
    "stop_lon": 4.84348859,
    "zone_id": "",
    "stop_url": "",
    "location_type": 1,
    "parent_station": ""
  },
  {
    "stop_id": "StopArea:OCE87725622",
    "stop_name": "Gare de Tournus",
    "stop_desc": "",
    "stop_lat": 46.56671912,
    "stop_lon": 4.90652183,
    "zone_id": "",
    "stop_url": "",
    "location_type": 1,
    "parent_station": ""
  },
  {
    "stop_id": "StopArea:OCE87725689",
    "stop_name": "Gare de Mâcon-Ville",
    "stop_desc": "",
    "stop_lat": 46.30265933,
    "stop_lon": 4.82514854,
    "zone_id": "",
    "stop_url": "",
    "location_type": 1,
    "parent_station": ""
  },
  {
    "stop_id": "StopArea:OCE87721357",
    "stop_name": "Gare de Belleville-sur-Saône",
    "stop_desc": "",
    "stop_lat": 46.11194196,
    "stop_lon": 4.72900204,
    "zone_id": "",
    "stop_url": "",
    "location_type": 1,
    "parent_station": ""
  },
  {
    "stop_id": "StopArea:OCE87721332",
    "stop_name": "Gare de Villefranche-sur-Saône",
    "stop_desc": "",
    "stop_lat": 45.98444369,
    "stop_lon": 4.7208137,
    "zone_id": "",
    "stop_url": "",
    "location_type": 1,
    "parent_station": ""
  },
  {
    "stop_id": "StopArea:OCE87721282",
    "stop_name": "Gare de St-Germain-au-Mont-d'Or",
    "stop_desc": "",
    "stop_lat": 45.88844225,
    "stop_lon": 4.80417584,
    "zone_id": "",
    "stop_url": "",
    "location_type": 1,
    "parent_station": ""
  },
  {
    "stop_id": "StopArea:OCE87683268",
    "stop_name": "Gare de Laroche-Migennes",
    "stop_desc": "",
    "stop_lat": 47.96085339,
    "stop_lon": 3.5129407,
    "zone_id": "",
    "stop_url": "",
    "location_type": 1,
    "parent_station": ""
  },
  {
    "stop_id": "StopArea:OCE87683318",
    "stop_name": "Gare de St-Florentin-Vergigny",
    "stop_desc": "",
    "stop_lat": 47.9804146,
    "stop_lon": 3.73094939,
    "zone_id": "",
    "stop_url": "",
    "location_type": 1,
    "parent_station": ""
  },
  {
    "stop_id": "StopArea:OCE87713198",
    "stop_name": "Gare de Tonnerre",
    "stop_desc": "",
    "stop_lat": 47.85960283,
    "stop_lon": 3.97349584,
    "zone_id": "",
    "stop_url": "",
    "location_type": 1,
    "parent_station": ""
  },
  {
    "stop_id": "StopArea:OCE87713156",
    "stop_name": "Gare de Nuits-sous-Ravières",
    "stop_desc": "",
    "stop_lat": 47.72921002,
    "stop_lon": 4.21126636,
    "zone_id": "",
    "stop_url": "",
    "location_type": 1,
    "parent_station": ""
  },
  {
    "stop_id": "StopArea:OCE87713131",
    "stop_name": "Gare de Montbard",
    "stop_desc": "",
    "stop_lat": 47.61871969,
    "stop_lon": 4.33615203,
    "zone_id": "",
    "stop_url": "",
    "location_type": 1,
    "parent_station": ""
  },
  {
    "stop_id": "StopArea:OCE87713115",
    "stop_name": "Gare de Les Laumes-Alésia",
    "stop_desc": "",
    "stop_lat": 47.54331945,
    "stop_lon": 4.46286849,
    "zone_id": "",
    "stop_url": "",
    "location_type": 1,
    "parent_station": ""
  },
  {
    "stop_id": "StopArea:OCE87686667",
    "stop_name": "Gare de Paris-Bercy",
    "stop_desc": "",
    "stop_lat": 48.83921134,
    "stop_lon": 2.38279865,
    "zone_id": "",
    "stop_url": "",
    "location_type": 1,
    "parent_station": ""
  },
  {
    "stop_id": "StopArea:OCE87683003",
    "stop_name": "Gare de Sens",
    "stop_desc": "",
    "stop_lat": 48.19803807,
    "stop_lon": 3.26732686,
    "zone_id": "",
    "stop_url": "",
    "location_type": 1,
    "parent_station": ""
  },
  {
    "stop_id": "StopArea:OCE87683243",
    "stop_name": "Gare de Joigny",
    "stop_desc": "",
    "stop_lat": 47.97383302,
    "stop_lon": 3.3929555,
    "zone_id": "",
    "stop_url": "",
    "location_type": 1,
    "parent_station": ""
  },
  {
    "stop_id": "StopArea:OCE87682302",
    "stop_name": "Gare de Montereau",
    "stop_desc": "",
    "stop_lat": 48.37983171,
    "stop_lon": 2.9429098,
    "zone_id": "",
    "stop_url": "",
    "location_type": 1,
    "parent_station": ""
  },
  {
    "stop_id": "StopArea:OCE87683201",
    "stop_name": "Gare de Etigny-Véron",
    "stop_desc": "",
    "stop_lat": 48.13826216,
    "stop_lon": 3.29017095,
    "zone_id": "",
    "stop_url": "",
    "location_type": 1,
    "parent_station": ""
  },
  {
    "stop_id": "StopArea:OCE87683219",
    "stop_name": "Gare de Villeneuve-sur-Yonne",
    "stop_desc": "",
    "stop_lat": 48.08493995,
    "stop_lon": 3.28625332,
    "zone_id": "",
    "stop_url": "",
    "location_type": 1,
    "parent_station": ""
  },
  {
    "stop_id": "StopArea:OCE87683227",
    "stop_name": "Gare de St-Julien-du-Sault",
    "stop_desc": "",
    "stop_lat": 48.02695318,
    "stop_lon": 3.30273209,
    "zone_id": "",
    "stop_url": "",
    "location_type": 1,
    "parent_station": ""
  },
  {
    "stop_id": "StopArea:OCE87713065",
    "stop_name": "Gare de Malain",
    "stop_desc": "",
    "stop_lat": 47.32727904,
    "stop_lon": 4.80946957,
    "zone_id": "",
    "stop_url": "",
    "location_type": 1,
    "parent_station": ""
  },
  {
    "stop_id": "StopArea:OCE87741223",
    "stop_name": "Gare de St-Pierre-d'Albigny",
    "stop_desc": "",
    "stop_lat": 45.55737211,
    "stop_lon": 6.15635833,
    "zone_id": "",
    "stop_url": "",
    "location_type": 1,
    "parent_station": ""
  },
  {
    "stop_id": "StopArea:OCE87741611",
    "stop_name": "Gare de Grésy-sur-Isère",
    "stop_desc": "",
    "stop_lat": 45.59443865,
    "stop_lon": 6.25886085,
    "zone_id": "",
    "stop_url": "",
    "location_type": 1,
    "parent_station": ""
  },
  {
    "stop_id": "StopArea:OCE87741629",
    "stop_name": "Gare de Frontenex",
    "stop_desc": "",
    "stop_lat": 45.63054964,
    "stop_lon": 6.31403377,
    "zone_id": "",
    "stop_url": "",
    "location_type": 1,
    "parent_station": ""
  },
  {
    "stop_id": "StopArea:OCE87741645",
    "stop_name": "Gare de Albertville",
    "stop_desc": "",
    "stop_lat": 45.67318392,
    "stop_lon": 6.38323835,
    "zone_id": "",
    "stop_url": "",
    "location_type": 1,
    "parent_station": ""
  },
  {
    "stop_id": "StopArea:OCE87741694",
    "stop_name": "Gare de Notre-Dame-de-Briançon",
    "stop_desc": "",
    "stop_lat": 45.53930714,
    "stop_lon": 6.46874675,
    "zone_id": "",
    "stop_url": "",
    "location_type": 1,
    "parent_station": ""
  },
  {
    "stop_id": "StopArea:OCE87741728",
    "stop_name": "Gare de Moûtiers-Salins-Brides",
    "stop_desc": "",
    "stop_lat": 45.48647746,
    "stop_lon": 6.53138203,
    "zone_id": "",
    "stop_url": "",
    "location_type": 1,
    "parent_station": ""
  },
  {
    "stop_id": "StopArea:OCE87741769",
    "stop_name": "Gare de Aime-la-Plagne",
    "stop_desc": "",
    "stop_lat": 45.55436807,
    "stop_lon": 6.64888363,
    "zone_id": "",
    "stop_url": "",
    "location_type": 1,
    "parent_station": ""
  },
  {
    "stop_id": "StopArea:OCE87741777",
    "stop_name": "Gare de Landry",
    "stop_desc": "",
    "stop_lat": 45.57420509,
    "stop_lon": 6.73386623,
    "zone_id": "",
    "stop_url": "",
    "location_type": 1,
    "parent_station": ""
  },
  {
    "stop_id": "StopArea:OCE87741793",
    "stop_name": "Gare de Bourg-St-Maurice",
    "stop_desc": "",
    "stop_lat": 45.61852135,
    "stop_lon": 6.77148144,
    "zone_id": "",
    "stop_url": "",
    "location_type": 1,
    "parent_station": ""
  },
  {
    "stop_id": "StopArea:OCE87741470",
    "stop_name": "Gare de Pont-de-Beauvoisin",
    "stop_desc": "",
    "stop_lat": 45.52454112,
    "stop_lon": 5.68066526,
    "zone_id": "",
    "stop_url": "",
    "location_type": 1,
    "parent_station": ""
  },
  {
    "stop_id": "StopArea:OCE87741439",
    "stop_name": "Gare de Lépin-le-Lac-la-Bauche",
    "stop_desc": "",
    "stop_lat": 45.54154578,
    "stop_lon": 5.76496275,
    "zone_id": "",
    "stop_url": "",
    "location_type": 1,
    "parent_station": ""
  },
  {
    "stop_id": "StopArea:OCE87741231",
    "stop_name": "Gare de Chamousset",
    "stop_desc": "",
    "stop_lat": 45.5575146,
    "stop_lon": 6.20643604,
    "zone_id": "",
    "stop_url": "",
    "location_type": 1,
    "parent_station": ""
  },
  {
    "stop_id": "StopArea:OCE87741256",
    "stop_name": "Gare de Aiguebelle",
    "stop_desc": "",
    "stop_lat": 45.54366556,
    "stop_lon": 6.30674685,
    "zone_id": "",
    "stop_url": "",
    "location_type": 1,
    "parent_station": ""
  },
  {
    "stop_id": "StopArea:OCE87741280",
    "stop_name": "Gare de Epierre-St-Léger",
    "stop_desc": "",
    "stop_lat": 45.45696828,
    "stop_lon": 6.29246943,
    "zone_id": "",
    "stop_url": "",
    "location_type": 1,
    "parent_station": ""
  },
  {
    "stop_id": "StopArea:OCE87741306",
    "stop_name": "Gare de St-Avre-la-Chambre",
    "stop_desc": "",
    "stop_lat": 45.35310182,
    "stop_lon": 6.30288419,
    "zone_id": "",
    "stop_url": "",
    "location_type": 1,
    "parent_station": ""
  },
  {
    "stop_id": "StopArea:OCE87742320",
    "stop_name": "Gare de St-Jean-de-Maurienne-A.",
    "stop_desc": "",
    "stop_lat": 45.27784161,
    "stop_lon": 6.35419796,
    "zone_id": "",
    "stop_url": "",
    "location_type": 1,
    "parent_station": ""
  },
  {
    "stop_id": "StopArea:OCE87742361",
    "stop_name": "Gare de St-Michel-Valloire",
    "stop_desc": "",
    "stop_lat": 45.21724733,
    "stop_lon": 6.47111769,
    "zone_id": "",
    "stop_url": "",
    "location_type": 1,
    "parent_station": ""
  },
  {
    "stop_id": "StopArea:OCE87742007",
    "stop_name": "Gare de Modane",
    "stop_desc": "",
    "stop_lat": 45.19355829,
    "stop_lon": 6.65917769,
    "zone_id": "",
    "stop_url": "",
    "location_type": 1,
    "parent_station": ""
  },
  {
    "stop_id": "StopArea:OCE87741074",
    "stop_name": "Gare de Culoz",
    "stop_desc": "",
    "stop_lat": 45.84325822,
    "stop_lon": 5.77869927,
    "zone_id": "",
    "stop_url": "",
    "location_type": 1,
    "parent_station": ""
  },
  {
    "stop_id": "StopArea:OCE87743716",
    "stop_name": "Gare de Ambérieu-en-Bugey",
    "stop_desc": "",
    "stop_lat": 45.95400782,
    "stop_lon": 5.34231274,
    "zone_id": "",
    "stop_url": "",
    "location_type": 1,
    "parent_station": ""
  },
  {
    "stop_id": "StopArea:OCE87723494",
    "stop_name": "Gare de St-André-le-Gaz",
    "stop_desc": "",
    "stop_lat": 45.54450656,
    "stop_lon": 5.52428581,
    "zone_id": "",
    "stop_url": "",
    "location_type": 1,
    "parent_station": ""
  },
  {
    "stop_id": "StopArea:OCE87741496",
    "stop_name": "Gare de Les Abrets-Fitilieu",
    "stop_desc": "",
    "stop_lat": 45.54212637,
    "stop_lon": 5.57546555,
    "zone_id": "",
    "stop_url": "",
    "location_type": 1,
    "parent_station": ""
  },
  {
    "stop_id": "StopArea:OCE87741454",
    "stop_name": "Gare de St-Béron-la-Bridoire",
    "stop_desc": "",
    "stop_lat": 45.50393362,
    "stop_lon": 5.73189474,
    "zone_id": "",
    "stop_url": "",
    "location_type": 1,
    "parent_station": ""
  },
  {
    "stop_id": "StopArea:OCE87741421",
    "stop_name": "Gare de Aiguebelette-le-Lac",
    "stop_desc": "",
    "stop_lat": 45.53630375,
    "stop_lon": 5.81311101,
    "zone_id": "",
    "stop_url": "",
    "location_type": 1,
    "parent_station": ""
  },
  {
    "stop_id": "StopArea:OCE87746784",
    "stop_name": "Gare de Chamonix-Mont-Blanc",
    "stop_desc": "",
    "stop_lat": 45.9227088,
    "stop_lon": 6.87427068,
    "zone_id": "",
    "stop_url": "",
    "location_type": 1,
    "parent_station": ""
  },
  {
    "stop_id": "StopArea:OCE87746826",
    "stop_name": "Gare de Les Praz-de-Chamonix",
    "stop_desc": "",
    "stop_lat": 45.93979334,
    "stop_lon": 6.8886028,
    "zone_id": "",
    "stop_url": "",
    "location_type": 1,
    "parent_station": ""
  },
  {
    "stop_id": "StopArea:OCE87746834",
    "stop_name": "Gare de Les Tines",
    "stop_desc": "",
    "stop_lat": 45.95055083,
    "stop_lon": 6.8991349,
    "zone_id": "",
    "stop_url": "",
    "location_type": 1,
    "parent_station": ""
  },
  {
    "stop_id": "StopArea:OCE87746842",
    "stop_name": "Gare de Lajoux",
    "stop_desc": "",
    "stop_lat": 45.96497937,
    "stop_lon": 6.91023627,
    "zone_id": "",
    "stop_url": "",
    "location_type": 1,
    "parent_station": ""
  },
  {
    "stop_id": "StopArea:OCE87746859",
    "stop_name": "Gare de Argentière (Hte-Savoie)",
    "stop_desc": "",
    "stop_lat": 45.9820087,
    "stop_lon": 6.92671942,
    "zone_id": "",
    "stop_url": "",
    "location_type": 1,
    "parent_station": ""
  },
  {
    "stop_id": "StopArea:OCE87746867",
    "stop_name": "Gare de Montroc-le-Planet",
    "stop_desc": "",
    "stop_lat": 45.99645143,
    "stop_lon": 6.9345514,
    "zone_id": "",
    "stop_url": "",
    "location_type": 1,
    "parent_station": ""
  },
  {
    "stop_id": "StopArea:OCE87746883",
    "stop_name": "Gare de Le Buet",
    "stop_desc": "",
    "stop_lat": 46.01916347,
    "stop_lon": 6.92036784,
    "zone_id": "",
    "stop_url": "",
    "location_type": 1,
    "parent_station": ""
  },
  {
    "stop_id": "StopArea:OCE87746875",
    "stop_name": "Gare de Vallorcine",
    "stop_desc": "",
    "stop_lat": 46.0326726,
    "stop_lon": 6.93299025,
    "zone_id": "",
    "stop_url": "",
    "location_type": 1,
    "parent_station": ""
  },
  {
    "stop_id": "StopArea:OCE87746479",
    "stop_name": "Gare de St-Gervais-L-B-Le-Fayet",
    "stop_desc": "",
    "stop_lat": 45.90647016,
    "stop_lon": 6.70071726,
    "zone_id": "",
    "stop_url": "",
    "location_type": 1,
    "parent_station": ""
  },
  {
    "stop_id": "StopArea:OCE87746701",
    "stop_name": "Gare de Chedde",
    "stop_desc": "",
    "stop_lat": 45.92630928,
    "stop_lon": 6.71979323,
    "zone_id": "",
    "stop_url": "",
    "location_type": 1,
    "parent_station": ""
  },
  {
    "stop_id": "StopArea:OCE87746719",
    "stop_name": "Gare de Servoz",
    "stop_desc": "",
    "stop_lat": 45.92448179,
    "stop_lon": 6.76348359,
    "zone_id": "",
    "stop_url": "",
    "location_type": 1,
    "parent_station": ""
  },
  {
    "stop_id": "StopArea:OCE87746727",
    "stop_name": "Gare de Vaudagne",
    "stop_desc": "",
    "stop_lat": 45.90902046,
    "stop_lon": 6.77258774,
    "zone_id": "",
    "stop_url": "",
    "location_type": 1,
    "parent_station": ""
  },
  {
    "stop_id": "StopArea:OCE87746735",
    "stop_name": "Gare de Viaduc-Ste-Marie",
    "stop_desc": "",
    "stop_lat": 45.89709525,
    "stop_lon": 6.78499351,
    "zone_id": "",
    "stop_url": "",
    "location_type": 1,
    "parent_station": ""
  },
  {
    "stop_id": "StopArea:OCE87746743",
    "stop_name": "Gare de Les Houches",
    "stop_desc": "",
    "stop_lat": 45.89396404,
    "stop_lon": 6.79738673,
    "zone_id": "",
    "stop_url": "",
    "location_type": 1,
    "parent_station": ""
  },
  {
    "stop_id": "StopArea:OCE87746750",
    "stop_name": "Gare de Taconnaz",
    "stop_desc": "",
    "stop_lat": 45.89869046,
    "stop_lon": 6.82422994,
    "zone_id": "",
    "stop_url": "",
    "location_type": 1,
    "parent_station": ""
  },
  {
    "stop_id": "StopArea:OCE87746768",
    "stop_name": "Gare de Les Bossons",
    "stop_desc": "",
    "stop_lat": 45.90679852,
    "stop_lon": 6.8391708,
    "zone_id": "",
    "stop_url": "",
    "location_type": 1,
    "parent_station": ""
  },
  {
    "stop_id": "StopArea:OCE87746776",
    "stop_name": "Gare de Les Pèlerins",
    "stop_desc": "",
    "stop_lat": 45.91276325,
    "stop_lon": 6.84774262,
    "zone_id": "",
    "stop_url": "",
    "location_type": 1,
    "parent_station": ""
  },
  {
    "stop_id": "StopArea:OCE87746818",
    "stop_name": "Gare de Les Moussoux",
    "stop_desc": "",
    "stop_lat": 45.91671704,
    "stop_lon": 6.85992063,
    "zone_id": "",
    "stop_url": "",
    "location_type": 1,
    "parent_station": ""
  },
  {
    "stop_id": "StopArea:OCE87462085",
    "stop_name": "Gare de Chamonix-Aiguille-Midi",
    "stop_desc": "",
    "stop_lat": 45.91990151,
    "stop_lon": 6.86678158,
    "zone_id": "",
    "stop_url": "",
    "location_type": 1,
    "parent_station": ""
  },
  {
    "stop_id": "StopArea:OCE87286005",
    "stop_name": "Gare de Lille Flandres",
    "stop_desc": "",
    "stop_lat": 50.63620117,
    "stop_lon": 3.07102315,
    "zone_id": "",
    "stop_url": "",
    "location_type": 1,
    "parent_station": ""
  },
  {
    "stop_id": "StopArea:OCE87286716",
    "stop_name": "Gare de Croix Wasquehal",
    "stop_desc": "",
    "stop_lat": 50.67854533,
    "stop_lon": 3.13809462,
    "zone_id": "",
    "stop_url": "",
    "location_type": 1,
    "parent_station": ""
  },
  {
    "stop_id": "StopArea:OCE87281055",
    "stop_name": "Gare de Croix l'Allumette",
    "stop_desc": "",
    "stop_lat": 50.68683739,
    "stop_lon": 3.15123171,
    "zone_id": "",
    "stop_url": "",
    "location_type": 1,
    "parent_station": ""
  },
  {
    "stop_id": "StopArea:OCE87286732",
    "stop_name": "Gare de Roubaix",
    "stop_desc": "",
    "stop_lat": 50.69535226,
    "stop_lon": 3.16302118,
    "zone_id": "",
    "stop_url": "",
    "location_type": 1,
    "parent_station": ""
  },
  {
    "stop_id": "StopArea:OCE87286542",
    "stop_name": "Gare de Tourcoing",
    "stop_desc": "",
    "stop_lat": 50.71672918,
    "stop_lon": 3.16800893,
    "zone_id": "",
    "stop_url": "",
    "location_type": 1,
    "parent_station": ""
  },
  {
    "stop_id": "StopArea:OCE88857040",
    "stop_name": "Gare de Mouscron / Moeskroen",
    "stop_desc": "",
    "stop_lat": 50.74003075,
    "stop_lon": 3.22748013,
    "zone_id": "",
    "stop_url": "",
    "location_type": 1,
    "parent_station": ""
  },
  {
    "stop_id": "StopArea:OCE88960080",
    "stop_name": "Gare de Courtrai/Kortrijk",
    "stop_desc": "",
    "stop_lat": 50.82446891,
    "stop_lon": 3.26444355,
    "zone_id": "",
    "stop_url": "",
    "location_type": 1,
    "parent_station": ""
  },
  {
    "stop_id": "StopArea:OCE87287102",
    "stop_name": "Gare de Lezennes",
    "stop_desc": "",
    "stop_lat": 50.62032053,
    "stop_lon": 3.09821588,
    "zone_id": "",
    "stop_url": "",
    "location_type": 1,
    "parent_station": ""
  },
  {
    "stop_id": "StopArea:OCE87286062",
    "stop_name": "Gare de Hellemmes",
    "stop_desc": "",
    "stop_lat": 50.62266343,
    "stop_lon": 3.11524367,
    "zone_id": "",
    "stop_url": "",
    "location_type": 1,
    "parent_station": ""
  },
  {
    "stop_id": "StopArea:OCE87286831",
    "stop_name": "Gare de Pont de Bois",
    "stop_desc": "",
    "stop_lat": 50.62385678,
    "stop_lon": 3.13071772,
    "zone_id": "",
    "stop_url": "",
    "location_type": 1,
    "parent_station": ""
  },
  {
    "stop_id": "StopArea:OCE87286856",
    "stop_name": "Gare de Annappes",
    "stop_desc": "",
    "stop_lat": 50.62281338,
    "stop_lon": 3.14636787,
    "zone_id": "",
    "stop_url": "",
    "location_type": 1,
    "parent_station": ""
  },
  {
    "stop_id": "StopArea:OCE87286864",
    "stop_name": "Gare de Ascq",
    "stop_desc": "",
    "stop_lat": 50.6217464,
    "stop_lon": 3.15987363,
    "zone_id": "",
    "stop_url": "",
    "location_type": 1,
    "parent_station": ""
  },
  {
    "stop_id": "StopArea:OCE87286872",
    "stop_name": "Gare de Baisieux",
    "stop_desc": "",
    "stop_lat": 50.618346,
    "stop_lon": 3.23469031,
    "zone_id": "",
    "stop_url": "",
    "location_type": 1,
    "parent_station": ""
  },
  {
    "stop_id": "StopArea:OCE88850685",
    "stop_name": "Gare de Froyennes.",
    "stop_desc": "",
    "stop_lat": 50.63034793,
    "stop_lon": 3.35408365,
    "zone_id": "",
    "stop_url": "",
    "location_type": 1,
    "parent_station": ""
  },
  {
    "stop_id": "StopArea:OCE88850010",
    "stop_name": "Gare de Tournai",
    "stop_desc": "",
    "stop_lat": 50.61280077,
    "stop_lon": 3.39679969,
    "zone_id": "",
    "stop_url": "",
    "location_type": 1,
    "parent_station": ""
  },
  {
    "stop_id": "StopArea:OCE87295063",
    "stop_name": "Gare de Hirson",
    "stop_desc": "",
    "stop_lat": 49.91457628,
    "stop_lon": 4.08429385,
    "zone_id": "",
    "stop_url": "",
    "location_type": 1,
    "parent_station": ""
  },
  {
    "stop_id": "StopArea:OCE87296145",
    "stop_name": "Gare de Origny-en-Thiérache",
    "stop_desc": "",
    "stop_lat": 49.89078479,
    "stop_lon": 4.02400811,
    "zone_id": "",
    "stop_url": "",
    "location_type": 1,
    "parent_station": ""
  },
  {
    "stop_id": "StopArea:OCE87297085",
    "stop_name": "Gare de La Bouteille",
    "stop_desc": "",
    "stop_lat": 49.85965622,
    "stop_lon": 3.98153488,
    "zone_id": "",
    "stop_url": "",
    "location_type": 1,
    "parent_station": ""
  },
  {
    "stop_id": "StopArea:OCE87296129",
    "stop_name": "Gare de Vervins",
    "stop_desc": "",
    "stop_lat": 49.82985997,
    "stop_lon": 3.89342392,
    "zone_id": "",
    "stop_url": "",
    "location_type": 1,
    "parent_station": ""
  },
  {
    "stop_id": "StopArea:OCE87296095",
    "stop_name": "Gare de Marle-sur-Serre",
    "stop_desc": "",
    "stop_lat": 49.74701584,
    "stop_lon": 3.76965336,
    "zone_id": "",
    "stop_url": "",
    "location_type": 1,
    "parent_station": ""
  },
  {
    "stop_id": "StopArea:OCE87297150",
    "stop_name": "Gare de Voyenne",
    "stop_desc": "",
    "stop_lat": 49.72612607,
    "stop_lon": 3.7200621,
    "zone_id": "",
    "stop_url": "",
    "location_type": 1,
    "parent_station": ""
  },
  {
    "stop_id": "StopArea:OCE87297143",
    "stop_name": "Gare de Dercy-Froidmont",
    "stop_desc": "",
    "stop_lat": 49.70273145,
    "stop_lon": 3.69203573,
    "zone_id": "",
    "stop_url": "",
    "location_type": 1,
    "parent_station": ""
  },
  {
    "stop_id": "StopArea:OCE87297119",
    "stop_name": "Gare de Verneuil-sur-Serre",
    "stop_desc": "",
    "stop_lat": 49.64866942,
    "stop_lon": 3.66777524,
    "zone_id": "",
    "stop_url": "",
    "location_type": 1,
    "parent_station": ""
  },
  {
    "stop_id": "StopArea:OCE87297291",
    "stop_name": "Gare de Barenton-Bugny",
    "stop_desc": "",
    "stop_lat": 49.63065674,
    "stop_lon": 3.65578662,
    "zone_id": "",
    "stop_url": "",
    "location_type": 1,
    "parent_station": ""
  },
  {
    "stop_id": "StopArea:OCE87296012",
    "stop_name": "Gare de Laon",
    "stop_desc": "",
    "stop_lat": 49.57055226,
    "stop_lon": 3.62437415,
    "zone_id": "",
    "stop_url": "",
    "location_type": 1,
    "parent_station": ""
  },
  {
    "stop_id": "StopArea:OCE87671008",
    "stop_name": "Gare de Tarbes",
    "stop_desc": "",
    "stop_lat": 43.23980288,
    "stop_lon": 0.06940671,
    "zone_id": "",
    "stop_url": "",
    "location_type": 1,
    "parent_station": ""
  },
  {
    "stop_id": "StopArea:OCE87671339",
    "stop_name": "Gare de Lourdes",
    "stop_desc": "",
    "stop_lat": 43.10042847,
    "stop_lon": -0.04219186,
    "zone_id": "",
    "stop_url": "",
    "location_type": 1,
    "parent_station": ""
  },
  {
    "stop_id": "StopArea:OCE87672139",
    "stop_name": "Gare de Coarraze-Nay",
    "stop_desc": "",
    "stop_lat": 43.18183212,
    "stop_lon": -0.2417563,
    "zone_id": "",
    "stop_url": "",
    "location_type": 1,
    "parent_station": ""
  },
  {
    "stop_id": "StopArea:OCE87672006",
    "stop_name": "Gare de Pau",
    "stop_desc": "",
    "stop_lat": 43.29166733,
    "stop_lon": -0.3696496,
    "zone_id": "",
    "stop_url": "",
    "location_type": 1,
    "parent_station": ""
  },
  {
    "stop_id": "StopArea:OCE87586008",
    "stop_name": "Gare de Agen",
    "stop_desc": "",
    "stop_lat": 44.20797206,
    "stop_lon": 0.62090454,
    "zone_id": "",
    "stop_url": "",
    "location_type": 1,
    "parent_station": ""
  },
  {
    "stop_id": "StopArea:OCE87586438",
    "stop_name": "Gare de Penne (Lot-et-Garonne)",
    "stop_desc": "",
    "stop_lat": 44.37982837,
    "stop_lon": 0.80315141,
    "zone_id": "",
    "stop_url": "",
    "location_type": 1,
    "parent_station": ""
  },
  {
    "stop_id": "StopArea:OCE87586453",
    "stop_name": "Gare de Monsempron-Libos",
    "stop_desc": "",
    "stop_lat": 44.48639604,
    "stop_lon": 0.94145886,
    "zone_id": "",
    "stop_url": "",
    "location_type": 1,
    "parent_station": ""
  },
  {
    "stop_id": "StopArea:OCE87586495",
    "stop_name": "Gare de Sauveterre-la-Lémance",
    "stop_desc": "",
    "stop_lat": 44.5893627,
    "stop_lon": 1.01167964,
    "zone_id": "",
    "stop_url": "",
    "location_type": 1,
    "parent_station": ""
  },
  {
    "stop_id": "StopArea:OCE87595892",
    "stop_name": "Gare de Villefranche-Périgord",
    "stop_desc": "",
    "stop_lat": 44.62697478,
    "stop_lon": 1.04920792,
    "zone_id": "",
    "stop_url": "",
    "location_type": 1,
    "parent_station": ""
  },
  {
    "stop_id": "StopArea:OCE87595876",
    "stop_name": "Gare de Belvès",
    "stop_desc": "",
    "stop_lat": 44.77736433,
    "stop_lon": 1.01201421,
    "zone_id": "",
    "stop_url": "",
    "location_type": 1,
    "parent_station": ""
  },
  {
    "stop_id": "StopArea:OCE87595769",
    "stop_name": "Gare de Siorac-en-Périgord",
    "stop_desc": "",
    "stop_lat": 44.81979224,
    "stop_lon": 0.98422675,
    "zone_id": "",
    "stop_url": "",
    "location_type": 1,
    "parent_station": ""
  },
  {
    "stop_id": "StopArea:OCE87595751",
    "stop_name": "Gare de Le Buisson",
    "stop_desc": "",
    "stop_lat": 44.84722534,
    "stop_lon": 0.90818331,
    "zone_id": "",
    "stop_url": "",
    "location_type": 1,
    "parent_station": ""
  },
  {
    "stop_id": "StopArea:OCE87595744",
    "stop_name": "Gare de Le Bugue",
    "stop_desc": "",
    "stop_lat": 44.90577356,
    "stop_lon": 0.94286402,
    "zone_id": "",
    "stop_url": "",
    "location_type": 1,
    "parent_station": ""
  },
  {
    "stop_id": "StopArea:OCE87595736",
    "stop_name": "Gare de Les Eyzies",
    "stop_desc": "",
    "stop_lat": 44.94126759,
    "stop_lon": 1.00827473,
    "zone_id": "",
    "stop_url": "",
    "location_type": 1,
    "parent_station": ""
  },
  {
    "stop_id": "StopArea:OCE87595512",
    "stop_name": "Gare de Niversac",
    "stop_desc": "",
    "stop_lat": 45.13818709,
    "stop_lon": 0.80812721,
    "zone_id": "",
    "stop_url": "",
    "location_type": 1,
    "parent_station": ""
  },
  {
    "stop_id": "StopArea:OCE87595009",
    "stop_name": "Gare de Périgueux",
    "stop_desc": "",
    "stop_lat": 45.18716358,
    "stop_lon": 0.70718103,
    "zone_id": "",
    "stop_url": "",
    "location_type": 1,
    "parent_station": ""
  },
  {
    "stop_id": "StopArea:OCE87581009",
    "stop_name": "Gare de Bordeaux-St-Jean",
    "stop_desc": "",
    "stop_lat": 44.82653979,
    "stop_lon": -0.55619406,
    "zone_id": "",
    "stop_url": "",
    "location_type": 1,
    "parent_station": ""
  },
  {
    "stop_id": "StopArea:OCE87420596",
    "stop_name": "Gare de Cenon",
    "stop_desc": "",
    "stop_lat": 44.85676804,
    "stop_lon": -0.5336025,
    "zone_id": "",
    "stop_url": "",
    "location_type": 1,
    "parent_station": ""
  },
  {
    "stop_id": "StopArea:OCE87584052",
    "stop_name": "Gare de Libourne",
    "stop_desc": "",
    "stop_lat": 44.91588446,
    "stop_lon": -0.23636765,
    "zone_id": "",
    "stop_url": "",
    "location_type": 1,
    "parent_station": ""
  },
  {
    "stop_id": "StopArea:OCE87584102",
    "stop_name": "Gare de St-Emilion",
    "stop_desc": "",
    "stop_lat": 44.88128673,
    "stop_lon": -0.15924486,
    "zone_id": "",
    "stop_url": "",
    "location_type": 1,
    "parent_station": ""
  },
  {
    "stop_id": "StopArea:OCE87584136",
    "stop_name": "Gare de Castillon",
    "stop_desc": "",
    "stop_lat": 44.85715781,
    "stop_lon": -0.0406571,
    "zone_id": "",
    "stop_url": "",
    "location_type": 1,
    "parent_station": ""
  },